City,Lat,Lng,Max Temp,Humidity,Cloudiness,Wind Speed,Country,Date
Marovoay,-16.1,46.6333,68.14,63,73,7.14,MG,1627343413
Iqaluit,63.7506,-68.5145,49.73,81,75,2.3,CA,1627343171
Kerrville,30.0474,-99.1403,93.54,38,1,3.0,US,1627343415
Punta Arenas,-53.15,-70.9167,42.91,75,0,8.05,CL,1627343387
Ushuaia,-54.8,-68.3,35.26,80,75,9.22,AR,1627343415
San Andrés,12.5847,-81.7006,84.22,79,75,10.36,CO,1627343302
San Fernando del Valle de Catamarca,-28.4696,-65.7852,54.59,44,3,4.45,AR,1627343416
Busselton,-33.65,115.3333,49.08,61,99,29.51,AU,1627343417
Beloha,-25.1667,45.05,61.47,68,58,12.24,MG,1627343417
Castro,-24.7911,-50.0119,58.44,63,7,4.54,BR,1627343186
Cape Town,-33.9258,18.4232,58.08,59,0,1.01,ZA,1627343417
Vila Velha,-20.3297,-40.2925,71.55,88,40,6.91,BR,1627343404
Hermanus,-34.4187,19.2345,56.07,61,23,7.02,ZA,1627343418
Kampot,10.6167,104.1833,82.45,83,97,8.14,KH,1627343418
Hilo,19.7297,-155.09,77.25,91,90,6.91,US,1627342832
Rikitea,-23.1203,-134.9692,74.64,77,74,18.23,PF,1627343419
Severo-Kuril'sk,50.6789,156.125,60.76,87,100,7.43,RU,1627343419
Atuona,-9.8,-139.0333,77.72,69,47,21.56,PF,1627343419
Syamzha,60.0158,41.0614,51.15,96,39,4.25,RU,1627343420
Karpogory,64.0019,44.4451,47.3,74,63,8.77,RU,1627343420
Carnarvon,-24.8667,113.6333,68.07,74,75,9.22,AU,1627343420
Albany,42.6001,-73.9662,80.55,75,0,7.65,US,1627343133
Port Alfred,-33.5906,26.891,60.85,32,98,9.91,ZA,1627343421
San Vicente,-26.6167,-54.1333,65.23,73,88,2.06,AR,1627343142
Ouro Preto do Oeste,-10.7481,-62.2158,82.11,40,2,2.48,BR,1627343421
Thompson,55.7435,-97.8558,71.76,33,40,5.75,CA,1627343422
Barrow,71.2906,-156.7887,48.22,87,90,8.05,US,1627343184
Taoudenni,22.6783,-3.9836,101.1,8,0,8.1,ML,1627343422
Puerto Ayora,-0.7393,-90.3518,72.55,84,45,7.0,EC,1627343422
Hobart,-42.8794,147.3294,56.26,80,75,5.99,AU,1627343164
Vaini,-21.2,-175.2,77.16,88,75,9.22,TO,1627343190
Port-Gentil,-0.7193,8.7815,76.96,78,75,8.05,GA,1627343423
La Ronge,55.1001,-105.2842,75.45,35,20,5.75,CA,1627343424
Ulladulla,-35.35,150.4667,65.88,48,86,10.18,AU,1627343424
Constitución,-35.3333,-72.4167,46.42,67,0,12.8,CL,1627343425
New Norfolk,-42.7826,147.0587,55.92,82,100,4.76,AU,1627343179
Shenjiamen,29.9576,122.298,79.05,90,100,28.43,CN,1627343425
Shaoxing,30.011,120.5715,80.55,95,100,12.95,CN,1627343425
Grand-Santi,4.25,-54.3833,73.45,96,93,2.73,GF,1627343426
Wenatchee,47.4235,-120.3103,102.09,18,1,3.0,US,1627343426
Saint Paul Harbor,57.79,-152.4072,62.11,59,90,5.75,US,1627343423
Władysławowo,54.7909,18.4009,69.94,94,77,8.75,PL,1627343426
Port Macquarie,-31.4333,152.9167,61.9,53,1,3.83,AU,1627343427
Port Blair,11.6667,92.75,81.72,86,98,19.95,IN,1627343427
Grand-Lahou,5.1367,-5.0242,76.35,80,87,10.27,CI,1627343427
Ilulissat,69.2167,-51.1,55.42,54,20,29.93,GL,1627343142
Naze,28.3667,129.4833,79.72,85,100,13.38,JP,1627343428
Jamestown,42.097,-79.2353,81.72,47,1,8.05,US,1627343428
Wanning,18.8003,110.3967,83.03,80,70,7.18,CN,1627343428
Bambous Virieux,-20.3428,57.7575,68.25,94,75,17.27,MU,1627343149
Broome,42.2506,-75.833,76.01,53,26,1.25,US,1627343423
Yulara,-25.2406,130.9889,62.44,22,35,10.36,AU,1627343430
Tuktoyaktuk,69.4541,-133.0374,51.8,71,90,3.44,CA,1627343430
Athens,37.9795,23.7162,83.17,34,0,5.99,GR,1627343116
Luga,58.7372,29.8453,61.02,71,0,3.51,RU,1627343431
San Miguel de Tucumán,-26.8241,-65.2226,59.0,58,40,5.75,AR,1627343431
Khatanga,71.9667,102.5,63.19,62,66,17.74,RU,1627343158
Grindavik,63.8424,-22.4338,49.95,93,90,9.22,IS,1627343431
Sasykoli,47.5515,46.9968,72.91,31,19,8.68,RU,1627343432
Hong Kong,22.2855,114.1577,88.97,85,95,5.99,HK,1627343186
Mataura,-46.1927,168.8643,49.48,84,41,3.91,NZ,1627343191
Ják,47.1425,16.5815,70.59,66,91,3.18,HU,1627343432
Jizan,17.3333,42.6667,83.34,76,77,3.67,SA,1627343433
Omalur,11.741,78.0456,73.83,91,99,2.73,IN,1627343433
Nikolskoye,59.7035,30.7861,62.02,71,10,3.56,RU,1627343433
Chaoyang,41.5703,120.4586,81.54,69,83,5.26,CN,1627343433
Qaanaaq,77.484,-69.3632,42.33,83,100,9.66,GL,1627343434
North Bend,43.4065,-124.2243,75.24,86,90,24.16,US,1627343434
Lyuban',52.7985,28.0048,64.78,89,98,7.87,BY,1627343434
Port Elizabeth,-33.918,25.5701,70.11,26,0,13.8,ZA,1627343173
Natchez,31.5604,-91.4032,88.9,84,40,4.61,US,1627343435
Gamba,-2.65,10.0,70.25,91,86,5.21,GA,1627343435
Port Hardy,50.6996,-127.4199,62.78,77,75,10.36,CA,1627343436
Faanui,-16.4833,-151.75,79.48,71,66,12.5,PF,1627343436
Butaritari,3.0707,172.7902,82.54,74,68,8.05,KI,1627343426
Cidreira,-30.1811,-50.2056,62.26,98,100,6.87,BR,1627343434
Avarua,-21.2078,-159.775,78.85,73,20,9.22,CK,1627343172
Zabul Province,32.25,67.25,77.25,16,100,3.02,AF,1627343437
Agadez,19.75,10.25,87.73,40,32,10.49,NE,1627343437
Hithadhoo,-0.6,73.0833,80.31,77,97,7.92,MV,1627343438
Bluff,-46.6,168.3333,50.81,73,26,20.38,NZ,1627343438
Kirovskiy,45.0917,133.5136,85.23,61,70,3.0,RU,1627343438
Ormara,25.2088,64.6357,81.66,86,99,9.71,PK,1627343439
Nikolayevsk-on-Amur,53.1406,140.73,69.49,95,100,1.88,RU,1627343439
Kapaa,22.0752,-159.319,84.52,77,75,1.99,US,1627343440
Noumea,-22.2763,166.4572,73.0,99,88,14.54,NC,1627343346
Atchison,39.563,-95.1216,91.17,62,0,8.66,US,1627343440
Hambantota,6.1241,81.1185,79.9,82,97,16.91,LK,1627343441
Esim,4.8699,-2.2405,76.17,75,94,11.12,GH,1627343441
Carutapera,-1.195,-46.02,75.04,93,81,6.35,BR,1627343441
Jalingo,8.8833,11.3667,71.82,97,95,4.52,NG,1627343442
Mount Isa,-20.7333,139.5,64.17,32,76,0.0,AU,1627343442
Yerbogachën,61.2767,108.0108,75.49,55,50,6.44,RU,1627343442
Batemans Bay,-35.7167,150.1833,64.09,47,84,9.28,AU,1627343442
Arraial do Cabo,-22.9661,-42.0278,71.56,78,0,13.8,BR,1627343443
Taltal,-25.4,-70.4833,58.41,74,12,5.06,CL,1627343443
Rudnyy,52.9594,63.1206,53.83,66,7,5.26,KZ,1627343444
Bethel,41.3712,-73.414,83.75,75,1,4.61,US,1627343191
Lata,40.1629,-8.3327,63.01,98,8,2.57,PT,1627343445
Ballitoville,-29.539,31.2144,55.24,87,0,6.91,ZA,1627343445
Sola,-13.8833,167.55,80.22,78,32,16.58,VU,1627343445
Ust'-Barguzin,53.45,108.9833,66.02,64,54,5.41,RU,1627343446
Tasiilaq,65.6145,-37.6368,48.36,91,53,4.25,GL,1627343160
Port Lincoln,-34.7333,135.8667,58.95,50,33,26.37,AU,1627343446
Vícar,36.8316,-2.6427,77.58,75,5,6.24,ES,1627343446
Brownsville,25.9018,-97.4975,91.51,66,1,4.0,US,1627343216
Chumikan,54.7183,135.315,71.91,52,100,3.51,RU,1627343447
Smithers,54.7804,-127.1743,61.12,72,75,2.3,CA,1627343173
Ribeira Grande,38.5167,-28.7,70.83,89,25,10.11,PT,1627343448
Fayaoué,-20.65,166.5333,72.07,62,99,18.97,NC,1627343449
Madaoua,14.073,5.96,73.38,91,100,22.12,NE,1627343449
Zhezkazgan,47.8043,67.7144,64.83,36,0,10.36,KZ,1627343449
Flinders,-34.5833,150.8552,66.06,60,67,5.99,AU,1627343450
Muros,42.7762,-9.0603,64.24,84,46,5.91,ES,1627343450
Cherskiy,68.75,161.3,53.8,49,6,18.39,RU,1627343450
Clairmont,55.2667,-118.786,62.53,77,75,4.61,CA,1627343450
Mehamn,71.0357,27.8492,45.54,88,33,3.91,NO,1627343451
Ponta do Sol,32.6667,-17.1,73.71,78,6,7.25,PT,1627343451
Ostrovnoy,68.0531,39.5131,45.86,88,100,20.07,RU,1627343452
Ventspils,57.3894,21.5606,67.93,73,0,4.61,LV,1627343452
Tura,25.5198,90.2201,75.76,95,100,4.23,IN,1627343453
Monte Alegre,-2.0078,-54.0692,79.93,60,86,4.29,BR,1627343453
Flin Flon,54.7682,-101.865,73.24,43,40,4.61,CA,1627343222
Chui,-33.6971,-53.4616,47.8,81,51,10.94,UY,1627343453
Torbay,47.6666,-52.7314,60.58,85,75,8.05,CA,1627343454
Haines Junction,60.7522,-137.5108,57.15,77,100,2.3,CA,1627343454
Sandwick,60.0,-1.25,58.82,94,90,12.66,GB,1627343454
Ketchikan,55.3422,-131.6461,61.27,82,90,14.97,US,1627343432
Lüderitz,-26.6481,15.1594,60.84,63,0,4.83,NA,1627343455
Innisfail,-17.5333,146.0333,76.87,69,99,4.97,AU,1627343455
Skjervøy,70.0311,20.9714,50.23,94,13,2.59,NO,1627343455
Bengkulu,-3.8004,102.2655,74.17,76,3,5.01,ID,1627343255
Ahipara,-35.1667,173.1667,58.86,66,13,16.67,NZ,1627343456
Kununurra,-15.7667,128.7333,73.38,78,100,1.14,AU,1627343456
Aklavik,68.2191,-135.0107,63.32,77,90,3.44,CA,1627343457
The Valley,18.217,-63.0578,82.54,74,20,11.5,AI,1627343457
Coquimbo,-29.9533,-71.3436,55.13,87,0,6.91,CL,1627343457
Horta,38.5333,-28.6333,70.29,89,31,9.46,PT,1627343458
Sangar,63.9242,127.4739,71.8,46,11,12.91,RU,1627343458
Tiquicheo,18.8833,-100.7333,90.5,51,67,3.58,MX,1627343458
Trincomalee,8.5711,81.2335,80.94,78,100,21.92,LK,1627343458
Sistranda,63.7256,8.834,71.91,74,52,7.85,NO,1627343459
Saskylakh,71.9167,114.0833,54.63,68,70,7.09,RU,1627343459
Corn Island,12.1694,-83.0418,81.91,79,100,16.64,NI,1627343460
Alofi,-19.0595,-169.9187,76.37,76,52,3.38,NU,1627343460
Chingirlau,51.095,54.0814,59.5,48,4,6.51,KZ,1627343461
Talnakh,69.4865,88.3972,72.66,65,78,8.08,RU,1627343461
Lebu,-37.6167,-73.65,46.51,73,17,17.09,CL,1627343461
Mahébourg,-20.4081,57.7,68.29,94,75,17.27,MU,1627343461
Weligama,5.9667,80.4167,78.46,89,94,10.04,LK,1627343462
Maningrida,-12.0667,134.2667,76.64,60,72,9.19,AU,1627343462
Yārāda,17.65,83.2667,84.52,89,75,9.22,IN,1627343462
Ust-Kuyga,70.0167,135.6,55.0,59,72,16.87,RU,1627343463
Altay,47.8667,88.1167,71.19,47,5,3.6,CN,1627343463
Provideniya,64.3833,-173.3,50.11,81,90,6.71,RU,1627343463
Hofn,64.2539,-15.2082,52.56,82,97,6.85,IS,1627343464
Faya,18.3851,42.4509,68.11,73,73,5.28,SA,1627343464
Ussel,45.55,2.3167,45.73,97,46,1.79,FR,1627343464
Ushtobe,45.2514,77.9838,72.07,62,4,12.5,KZ,1627343464
Kulhudhuffushi,6.6221,73.07,82.04,75,100,13.24,MV,1627343422
Salmās,38.1973,44.7653,65.39,49,0,2.57,IR,1627343465
Kitgum,3.2783,32.8867,66.96,82,100,2.35,UG,1627343465
Aberystwyth,52.4155,-4.0829,64.31,89,100,4.76,GB,1627343466
Sobolevo,54.4299,31.8996,62.94,77,80,5.48,RU,1627343466
Pisco,-13.7,-76.2167,66.25,77,0,16.11,PE,1627343467
Great Falls,47.5002,-111.3008,96.19,11,1,1.01,US,1627343467
Saint-Philippe,-21.3585,55.7679,63.95,78,66,11.68,RE,1627343172
Kavieng,-2.5744,150.7967,84.7,65,40,6.38,PG,1627343467
Colares,38.7992,-9.4469,67.68,75,1,11.99,PT,1627343467
Leamington,42.0549,-82.6062,90.0,67,1,1.23,CA,1627343468
Rājula,21.05,71.4333,78.73,88,100,10.16,IN,1627343468
El Salvador,13.8333,-88.9167,78.04,91,29,3.09,SV,1627343468
Husavik,66.0449,-17.3389,49.91,82,74,1.95,IS,1627343469
Souillac,-20.5167,57.5167,68.38,94,75,17.27,MU,1627343469
Casper,42.8666,-106.3131,97.39,11,1,1.99,US,1627343469
Fort Nelson,58.8053,-122.7002,74.79,33,75,3.44,CA,1627343222
Terebovlya,49.3019,25.71,63.46,84,65,9.31,UA,1627343470
Wailuku,20.8911,-156.5047,84.9,82,40,14.0,US,1627343470
Batagay-Alyta,67.8006,130.4114,55.18,73,75,11.25,RU,1627343470
Huron,41.1501,-82.5499,83.07,74,0,3.31,US,1627343471
Houma,29.5958,-90.7195,91.4,76,69,5.01,US,1627343471
Marsberg,51.4617,8.8495,63.95,96,68,5.06,DE,1627343471
Fortuna,40.5982,-124.1573,95.47,80,1,14.97,US,1627343472
Kadoma,34.7333,135.5833,87.66,70,40,3.44,JP,1627343472
Dikson,73.5069,80.5464,38.16,100,100,3.53,RU,1627343472
Zhob,31.3411,69.4481,85.26,50,96,3.31,PK,1627343472
Cururupu,-1.8283,-44.8683,73.94,92,88,2.39,BR,1627343473
Kukuna,9.4,-12.6667,73.9,98,95,3.83,SL,1627343473
Henties Bay,-22.116,14.2845,65.86,56,0,1.01,NA,1627343473
Berlevåg,70.8578,29.0864,45.28,87,60,0.78,NO,1627343474
Itarema,-2.9248,-39.9167,79.16,81,19,18.32,BR,1627343474
Norman Wells,65.282,-126.8329,64.44,55,90,11.5,CA,1627343474
Longyearbyen,78.2186,15.6401,43.18,87,100,0.94,SJ,1627343475
Chipinge,-20.1883,32.6236,43.2,82,10,1.77,ZW,1627343475
Ust-Nera,64.5667,143.2,55.11,84,100,5.64,RU,1627343475
Huarmey,-10.0681,-78.1522,65.44,83,24,11.1,PE,1627343475
Vila Franca do Campo,37.7167,-25.4333,68.41,89,55,6.58,PT,1627343476
Rio Grande,-32.035,-52.0986,49.95,91,100,17.47,BR,1627343476
Baruun-Urt,46.6806,113.2792,62.74,68,97,3.06,MN,1627343476
Daru,-9.0763,143.2092,79.77,78,85,16.64,PG,1627343477
Taywarah,33.35,64.4167,59.09,32,32,7.25,AF,1627343477
Tucuruí,-3.7661,-49.6725,80.67,48,49,2.28,BR,1627343477
Chadan,51.2833,91.5833,64.33,67,5,2.71,RU,1627343478
Hukuntsi,-24.0,21.75,43.68,49,0,10.69,BW,1627343478
San Felipe,10.3399,-68.7425,73.17,95,65,2.19,VE,1627343478
Heihe,50.2441,127.4902,70.38,88,98,3.09,CN,1627343479
Yazd,31.8972,54.3675,82.35,20,46,2.33,IR,1627343479
Chokurdakh,70.6333,147.9167,43.27,70,97,12.46,RU,1627343479
Chepareria,1.3077,35.2039,59.86,89,97,2.3,KE,1627343480
East London,-33.0153,27.9116,63.03,26,88,11.99,ZA,1627343184
Jieshi,22.8134,115.8257,86.95,81,100,7.61,CN,1627343480
Meïganga,6.5167,14.3,63.55,97,99,3.36,CM,1627343480
Yellowknife,62.456,-114.3525,68.52,60,40,16.11,CA,1627343182
Chodavaram,17.8333,82.95,84.04,71,93,4.99,IN,1627343481
Pacific Grove,36.6177,-121.9166,89.98,79,20,5.01,US,1627343481
Pudozh,61.8099,36.5345,54.5,95,35,4.45,RU,1627343481
Palmira,3.5394,-76.3036,80.08,57,75,11.5,CO,1627343482
Halifax,44.6453,-63.5724,69.69,91,90,1.01,CA,1627343367
Siocon,7.7061,122.1353,83.68,75,96,6.11,PH,1627343482
Mareeba,-17.0,145.4333,73.49,75,79,5.28,AU,1627343482
Seymchan,62.8833,152.4333,60.46,46,74,10.07,RU,1627343482
Moba,33.2288,105.0179,60.26,85,100,4.18,CN,1627343483
Biloela,-24.4167,150.5,65.32,38,0,2.62,AU,1627343483
Kyzyl-Suu,42.3414,78.0056,67.03,30,0,5.86,KG,1627343484
Río Gallegos,-51.6226,-69.2181,39.25,81,90,8.05,AR,1627343484
Novoagansk,61.9449,76.6625,50.2,84,99,11.83,RU,1627343484
Havre-St-Pierre,50.2334,-63.5986,64.76,88,40,3.44,CA,1627343485
Ugoofaaru,5.6667,73.0,82.26,75,97,12.1,MV,1627343485
Kenai,60.5544,-151.2583,66.02,76,1,9.22,US,1627343485
Mochudi,-24.4167,26.15,43.48,55,0,4.47,BW,1627343486
Gazli,40.1333,63.45,84.6,19,0,19.28,UZ,1627343486
Vanimo,-2.6741,141.3028,83.14,68,72,5.37,PG,1627343486
Dolores,-36.3132,-57.6792,42.55,51,70,10.16,AR,1627343487
Gizo Government Station,-8.103,156.8419,81.61,77,86,13.78,SB,1627343487
Carnot,4.9409,15.8665,70.39,94,100,2.53,CF,1627343487
Itupiranga,-5.1347,-49.3267,78.64,49,38,1.21,BR,1627343488
Bredasdorp,-34.5322,20.0403,52.92,62,70,4.61,ZA,1627343488
San Patricio,28.017,-97.5169,93.88,47,4,11.36,US,1627343488
Wonthaggi,-38.6044,145.5913,59.2,65,53,18.5,AU,1627343488
Sept-Îles,50.2001,-66.3821,64.92,92,75,1.01,CA,1627343314
Portel,-1.9356,-50.8211,80.89,61,93,3.33,BR,1627343489
Kiryat Gat,31.61,34.7642,79.81,83,0,5.14,IL,1627343489
Waingapu,-9.6567,120.2641,77.85,75,52,7.02,ID,1627343489
Tuatapere,-46.1333,167.6833,50.83,80,74,5.03,NZ,1627343490
Iglesias,39.3114,8.535,78.53,72,93,1.9,IT,1627343490
Richards Bay,-28.783,32.0377,61.32,59,28,14.79,ZA,1627343491
Lompoc,34.6391,-120.4579,78.69,75,75,6.91,US,1627343491
Deputatsky,69.3,139.9,42.55,88,100,2.13,RU,1627343491
Viesīte,56.3475,25.5551,63.12,77,94,5.93,LV,1627343491
Porto Seguro,-16.4497,-39.0647,70.32,94,40,4.61,BR,1627343311
Sault Ste. Marie,46.5168,-84.3333,81.16,41,1,5.75,CA,1627343274
Nouadhibou,20.931,-17.0347,69.78,88,0,21.85,MR,1627343492
Lahaina,20.8783,-156.6825,85.75,89,39,11.54,US,1627343435
Ust-Maya,60.4167,134.5333,76.62,59,6,7.38,RU,1627343492
Hasaki,35.7333,140.8333,73.8,85,100,16.28,JP,1627343433
Dzhiginka,45.133,37.3383,75.54,57,20,8.95,RU,1627343493
Sirte,31.2089,16.5887,78.89,69,0,13.53,LY,1627343493
Mkushi,-13.6202,29.3939,48.38,72,97,7.65,ZM,1627343493
Miragoâne,18.4423,-73.0876,82.74,74,72,3.24,HT,1627343494
Hidalgotitlán,17.7833,-94.6333,81.64,83,72,8.28,MX,1627343494
Semnan,35.5729,53.3971,81.86,39,1,2.17,IR,1627343494
Laguna,38.421,-121.4238,98.24,25,1,4.0,US,1627343421
Sicamous,50.8331,-118.9856,97.11,19,2,2.46,CA,1627343495
Vardø,70.3705,31.1107,46.42,86,57,7.58,NO,1627343457
Salalah,17.0151,54.0924,77.2,91,95,10.96,OM,1627343495
Lircay,-12.9896,-74.7205,59.54,65,91,3.18,PE,1627343495
Cabo San Lucas,22.8909,-109.9124,93.81,69,3,8.39,MX,1627343430
Mahon,39.8885,4.2658,75.76,64,0,6.91,ES,1627343496
Conde,-7.2597,-34.9075,74.66,88,0,6.91,BR,1627343496
Kamaishi,39.2667,141.8833,74.35,96,100,14.27,JP,1627343496
Zhigansk,66.7697,123.3711,57.58,63,24,16.87,RU,1627343439
Ajdabiya,30.7554,20.2263,76.66,55,0,8.23,LY,1627343497
Ottumwa,41.02,-92.4113,90.28,51,1,3.44,US,1627343497
Hamilton,39.1834,-84.5333,85.95,58,20,1.99,US,1627343222
Wamba,8.9333,8.6,69.8,95,100,3.38,NG,1627343498
Illela,13.7292,5.2975,76.69,85,99,27.36,NG,1627343498
Pointe Michel,15.25,-61.3833,80.26,75,92,9.86,DM,1627343498
Tiksi,71.6872,128.8694,39.04,87,65,10.07,RU,1627343499
Garoowe,8.4054,48.4845,77.29,51,85,21.7,SO,1627343499
Clyde River,70.4692,-68.5914,39.43,93,90,6.91,CA,1627343484
Lázaro Cárdenas,17.9583,-102.2,85.26,77,9,6.04,MX,1627343499
Oeiras,-7.0253,-42.1311,80.89,43,34,8.75,BR,1627343500
Upernavik,72.7868,-56.1549,42.35,91,100,3.91,GL,1627343500
Gemena,3.25,19.7667,71.4,91,100,2.64,CD,1627343500
Praia,14.9215,-23.5087,77.54,78,75,8.05,CV,1627343501
Glenwood Springs,39.5505,-107.3248,94.12,30,1,5.75,US,1627343501
Airai,-8.9266,125.4092,67.89,37,40,3.18,TL,1627343501
Chul'man,56.8479,124.9104,65.82,66,2,2.91,RU,1627343502
Namatanai,-3.6667,152.4333,84.2,65,33,4.74,PG,1627343502
Rocha,-34.4833,-54.3333,45.55,88,9,7.07,UY,1627343502
Mizdah,31.4451,12.9801,70.97,68,0,11.07,LY,1627343502
Shache,38.4167,77.2406,87.04,25,35,3.49,CN,1627343503
Denison,33.7557,-96.5367,99.66,50,55,1.01,US,1627343413
Vinzili,56.9594,65.7708,48.51,77,86,5.73,RU,1627343504
Aksarka,66.5606,67.7975,48.61,94,84,5.59,RU,1627343462
Half Moon Bay,37.4636,-122.4286,92.57,70,75,1.01,US,1627343505
Abu Samrah,35.3029,37.1841,77.99,54,0,7.63,SY,1627343505
Bielsk Podlaski,52.7651,23.1865,65.25,97,99,9.37,PL,1627343505
Narsaq,60.9167,-46.05,53.87,72,27,0.67,GL,1627343505
Broken Hill,-31.95,141.4333,56.91,41,7,18.41,AU,1627343435
Dali,25.7,100.1833,64.29,88,99,1.74,CN,1627343506
Bilibino,68.0546,166.4372,55.98,46,62,14.25,RU,1627343506
Dicabisagan,17.0818,122.4157,85.87,60,99,3.06,PH,1627343506
Prieska,-29.6641,22.7474,47.79,41,1,8.88,ZA,1627343507
Oriximiná,-1.7656,-55.8661,80.94,52,99,2.71,BR,1627343507
Oshakati,-17.7833,15.6833,51.82,35,0,12.06,NA,1627343508
Banff,51.1762,-115.5698,82.78,16,0,6.91,CA,1627343509
Assiut,27.181,31.1837,80.78,26,0,7.4,EG,1627343465
Nador,35.174,-2.9287,70.05,83,0,3.44,MA,1627343509
Rūdiškės,54.5167,24.8333,71.87,78,96,10.2,LT,1627343509
Te Anau,-45.4167,167.7167,46.31,83,68,4.32,NZ,1627343510
Lagoa,39.05,-27.9833,70.79,88,86,8.68,PT,1627343510
Bridgton,44.0548,-70.7128,75.7,90,73,1.79,US,1627343510
Najrān,17.4924,44.1277,84.85,35,73,1.83,SA,1627343510
Jumla,29.2747,82.1838,64.67,98,100,0.81,NP,1627343511
Kobryn,52.2138,24.3564,63.86,95,92,11.65,BY,1627343512
Berdigestyakh,62.0989,126.6992,76.37,51,52,9.89,RU,1627343512
Khāsh,28.2211,61.2158,80.82,16,52,5.95,IR,1627343513
Pangnirtung,66.1451,-65.7125,55.2,86,60,3.22,CA,1627343513
Yar-Sale,66.8333,70.8333,48.72,73,23,7.07,RU,1627343513
Santa Fe,-31.6333,-60.7,55.99,54,0,11.01,AR,1627343353
Şarkîkaraağaç,38.0794,31.3664,60.94,75,2,4.41,TR,1627343514
Mbandaka,0.0487,18.2603,73.17,54,49,2.71,CD,1627343514
San Cristobal,7.7669,-72.225,75.38,99,94,3.6,VE,1627343514
Esperance,-33.8667,121.9,55.24,66,35,34.34,AU,1627343515
Yebaishou,41.3975,119.6408,77.14,77,91,3.65,CN,1627343515
Honiara,-9.4333,159.95,82.76,73,100,6.58,SB,1627343516
Mossamedes,-15.1961,12.1522,65.19,80,0,1.63,AO,1627343517
Kamenka,51.3223,42.7678,60.69,54,2,4.36,RU,1627343517
Namie,37.4833,141.0,75.96,97,100,13.02,JP,1627343517
Sovetskiy,61.3614,63.5842,49.96,92,59,5.5,RU,1627343518
Tiznit Province,29.5833,-9.5,70.74,68,1,1.12,MA,1627343518
Manadhoo,5.7667,73.3833,82.13,76,97,11.7,MV,1627343518
Bahía Blanca,-38.7196,-62.2724,40.73,42,38,9.98,AR,1627343519
St. George's,12.0564,-61.7485,80.28,89,40,0.0,GD,1627343454
Manaure,11.7751,-72.4445,83.32,74,44,17.67,CO,1627343519
Kahului,20.8947,-156.47,84.22,81,40,27.63,US,1627343519
Poum,-20.2333,164.0167,71.35,67,100,8.84,NC,1627343520
Raudeberg,61.9875,5.1352,66.87,74,81,7.52,NO,1627343521
Ondangwa,-17.9167,15.95,51.8,50,0,4.61,NA,1627343521
Zaykovo,57.5613,62.7568,50.18,88,45,5.64,RU,1627343521
Tomatlán,19.9333,-105.25,86.04,66,77,7.43,MX,1627343478
Werda,-25.2667,23.2833,43.61,46,1,9.37,BW,1627343522
Camacha,33.0833,-16.3333,69.53,73,75,12.66,PT,1627343522
Sitka,57.0531,-135.33,62.49,72,40,6.91,US,1627343522
São Félix do Xingu,-6.6447,-51.995,75.61,45,41,1.39,BR,1627343523
Bandarbeyla,9.4942,50.8122,76.93,76,34,24.18,SO,1627343523
Baharly,38.4362,57.4316,86.97,32,0,4.16,TM,1627343524
Ngunguru,-35.6167,174.5,60.17,65,8,16.2,NZ,1627343524
Katsuura,35.1333,140.3,78.19,88,88,23.96,JP,1627343493
Gondanglegi,-7.7479,112.0132,74.91,79,31,9.66,ID,1627343525
La Trinitaria,16.1167,-92.05,68.02,71,47,3.44,MX,1627343525
Mandapam,9.2833,79.1167,83.39,71,100,19.82,IN,1627343526
Sândominic,46.584,25.7803,62.22,81,62,2.59,RO,1627343526
Fairbanks,64.8378,-147.7164,73.02,48,1,3.0,US,1627343526
San Joaquin,37.9333,-121.3011,97.79,25,1,8.05,US,1627343526
Alexander City,32.944,-85.9539,86.49,89,40,0.0,US,1627343527
Shōranūr,10.7667,76.2833,76.71,99,98,1.74,IN,1627343527
Mayumba,-3.432,10.6554,70.56,93,98,3.91,GA,1627343527
Vung Tau,10.346,107.0843,80.94,80,49,15.61,VN,1627343393
Likasi,-10.9814,26.7333,51.06,56,76,5.93,CD,1627343528
Kentau,43.5206,68.5094,75.81,29,0,25.59,KZ,1627343528
Muli,2.9167,73.5667,81.81,70,99,3.27,MV,1627343434
Kumul,42.8,93.45,84.15,21,3,13.35,CN,1627343528
Cappelle-la-Grande,50.9998,2.3585,60.51,94,46,1.99,FR,1627343529
Oudtshoorn,-33.5907,22.2014,68.36,37,86,12.39,ZA,1627343529
Qaqortoq,60.7167,-46.0333,50.99,80,27,2.95,GL,1627343529
Kamsack,51.5667,-101.9009,79.25,23,11,7.9,CA,1627343247
Martigues,43.4,5.05,77.45,50,0,2.3,FR,1627343530
Liusha,27.2098,108.59,73.2,87,4,1.12,CN,1627343530
Tianpeng,30.9866,103.9393,75.67,79,87,1.66,CN,1627343530
Furth im Wald,49.3097,12.84,66.42,86,83,3.87,DE,1627343530
Yaan,7.3833,8.5667,71.11,85,100,5.5,NG,1627343531
Lukaya,-0.1489,31.8748,69.03,60,96,2.84,UG,1627343531
São Filipe,14.8961,-24.4956,75.07,83,24,9.55,CV,1627343523
Biak,-0.9131,122.8766,76.93,74,76,6.49,ID,1627343532
Vestmannaeyjar,63.4427,-20.2734,50.86,83,100,12.17,IS,1627343532
Dawei,14.0833,98.2,76.82,93,99,3.89,MM,1627343533
Oistins,13.0667,-59.5333,80.69,78,20,14.97,BB,1627343533
Vedi,39.9142,44.7222,78.19,54,1,3.42,AM,1627343533
Miracema do Tocantins,-9.5618,-48.3967,76.82,36,13,3.2,BR,1627343533
At-Bashi,41.1702,75.8106,59.5,50,23,0.78,KG,1627343534
Nizwá,22.9333,57.5333,92.43,40,76,3.71,OM,1627343534
Paamiut,61.994,-49.6678,45.61,92,74,9.51,GL,1627343534
Maglajani,44.9486,17.3494,73.42,78,0,4.61,BA,1627343535
Katangli,51.7102,143.2326,68.16,91,98,5.88,RU,1627343535
Marsá Maţrūḩ,31.3525,27.2453,77.2,73,40,11.5,EG,1627343535
Minsk,53.9,27.5667,69.55,73,58,8.19,BY,1627343327
Aquiraz,-3.9014,-38.3911,80.69,82,23,11.5,BR,1627343536
Ambon City,-3.6954,128.1814,80.74,83,20,2.3,ID,1627343536
Harwich,51.9419,1.2844,65.34,91,62,1.99,GB,1627343536
Tiarei,-17.5333,-149.3333,82.42,75,49,7.49,PF,1627343536
Teluknaga,-6.0989,106.6381,76.6,88,20,8.05,ID,1627343537
Espinal,4.1492,-74.8843,79.56,70,68,4.23,CO,1627343423
Awjilah,29.1081,21.2869,79.12,50,0,8.55,LY,1627343537
Saint George,37.1041,-113.5841,83.53,44,46,13.6,US,1627343537
George Town,5.4112,100.3354,82.89,88,20,0.0,MY,1627343538
Botucatu,-22.8858,-48.445,62.8,38,0,2.37,BR,1627343538
Padang,-0.9492,100.3543,77.05,87,18,3.0,ID,1627343538
Mount Gambier,-37.8333,140.7667,49.91,66,46,17.27,AU,1627343539
Ponta Delgada,37.7333,-25.6667,68.72,94,75,8.05,PT,1627343539
Kysyl-Syr,63.8986,122.7617,72.52,47,16,8.41,RU,1627343539
Nuuk,64.1835,-51.7216,49.35,85,22,11.32,GL,1627343540
Fare,-16.7,-151.0167,79.05,71,50,11.61,PF,1627343540
Shelburne,44.0787,-80.2041,80.49,72,5,6.35,CA,1627343540
Hirara,24.8,125.2833,82.67,100,75,3.44,JP,1627343540
Anadyr,64.75,177.4833,50.5,93,75,15.01,RU,1627343541
Saurimo,-9.6608,20.3916,55.35,34,91,5.84,AO,1627343541
Pangai,-19.8,-174.35,80.71,69,75,2.3,TO,1627343541
La Santisima Trinidad,-14.8333,-64.9,84.18,65,20,3.44,BO,1627343542
Bayanday,53.0661,105.5139,66.97,57,6,6.46,RU,1627343542
Rutana Province,-3.8667,30.1,56.98,58,84,1.97,BI,1627343543
Fort Frances,48.5999,-93.4003,76.15,50,1,6.91,CA,1627343438
Shāhpur,16.7,76.8333,72.48,86,73,13.27,IN,1627343543
Pangoa,-12.1167,-73.0,72.01,71,0,2.98,PE,1627343544
Pacifica,37.6138,-122.4869,92.39,79,75,5.01,US,1627343544
Wau,7.7029,27.9953,67.46,98,78,3.83,SS,1627343454
Caravelas,-17.7125,-39.2481,70.03,84,4,5.37,BR,1627343544
Rock Springs,41.5875,-109.2029,94.23,12,1,1.01,US,1627343510
Hammerfest,70.6634,23.6821,50.94,85,36,3.02,NO,1627343545
Khair,27.95,77.8333,84.22,72,90,1.86,IN,1627343545
Magalia,39.8121,-121.5783,96.53,13,84,8.34,US,1627343545
Zwedru,6.0667,-8.1281,70.25,97,88,3.53,LR,1627343546
Kieta,-6.2167,155.6333,85.28,68,32,4.65,PG,1627343547
Dingle,10.9995,122.6711,83.14,79,100,13.87,PH,1627343547
Nishihara,26.1842,127.7558,83.48,84,20,10.36,JP,1627343547
San Fernando,15.0286,120.6898,82.49,77,98,13.6,PH,1627343548
Khorramshahr,30.4397,48.1664,96.76,28,0,4.61,IR,1627343548
Kaitangata,-46.2817,169.8464,48.61,73,58,8.63,NZ,1627343548
Umm Kaddadah,13.6017,26.6876,76.48,70,90,6.49,SD,1627343549
Iringa,-7.7667,35.7,52.92,67,1,5.75,TZ,1627343549
Pulgaon,20.7333,78.3333,76.89,81,100,13.38,IN,1627343549
Solnechnyy,50.7214,136.6319,72.54,89,100,2.59,RU,1627343550
Arrondissement de Vesoul,47.5833,5.8333,61.61,93,4,3.87,FR,1627343550
Cap Malheureux,-19.9842,57.6142,68.49,86,40,5.01,MU,1627343550
Margate,51.3813,1.3862,65.03,91,50,3.0,GB,1627343551
Touros,-5.1989,-35.4608,72.5,85,2,10.38,BR,1627343551
Weyburn,49.6668,-103.8511,84.42,30,0,10.36,CA,1627343552
Bétaré Oya,5.6,14.0833,65.1,97,82,3.51,CM,1627343552
Eyrarbakki,63.863,-21.1481,50.05,86,100,9.28,IS,1627343552
Olafsvik,64.8945,-23.7142,49.8,85,100,9.37,IS,1627343553
Ubinskoye,55.3068,79.6802,51.04,73,53,8.79,RU,1627343553
Bull Savanna,17.8868,-77.5902,78.66,80,64,9.71,JM,1627343554
Huilong,31.8111,121.655,80.04,94,100,30.4,CN,1627343555
Auki,-8.7676,160.7034,84.49,65,91,4.41,SB,1627343555
Saldanha,-33.0117,17.9442,55.45,85,23,9.82,ZA,1627343556
Lodja,-3.4833,23.4333,66.63,43,46,2.64,CD,1627343556
Cuenca,-2.8833,-78.9833,62.73,59,75,9.22,EC,1627343557
Canto do Buriti,-8.11,-42.9444,77.07,43,40,5.99,BR,1627343557
Tongliao,43.6125,122.2653,80.28,72,51,8.88,CN,1627343558
Gao,16.6362,1.637,91.81,38,85,9.66,ML,1627343558
Alta Floresta,-9.8756,-56.0861,77.94,38,49,2.35,BR,1627343559
Ubari,26.5921,12.7805,82.94,20,0,9.46,LY,1627343559
Moose Jaw,50.4001,-105.5344,84.47,27,1,5.75,CA,1627343559
Te Karaka,-38.4654,177.8679,56.61,61,50,7.72,NZ,1627343560
Mt. Pleasant,32.7941,-79.8626,86.0,83,75,1.01,US,1627343560
Vilyuysk,63.7553,121.6247,73.83,57,38,7.18,RU,1627343560
Waycross,31.2136,-82.354,84.25,93,1,3.44,US,1627343561
Invermere,50.5167,-116.0354,89.85,22,0,1.99,CA,1627343561
Dawlatabad,36.4141,64.9053,85.19,29,0,6.89,AF,1627343561
Saint-Joseph,-21.3667,55.6167,62.96,77,43,11.81,RE,1627343562
Faribault,44.295,-93.2688,87.48,65,1,8.05,US,1627343510
Santa Isabel Rio Negro,-0.4139,-65.0192,75.02,89,99,2.93,BR,1627343563
Zaozyornoye,45.1582,33.2787,71.94,61,0,12.03,UA,1627343563
Bay Roberts,47.5999,-53.2648,61.34,85,13,1.99,CA,1627343563
Caldwell,43.6629,-116.6874,98.47,20,1,12.66,US,1627343564
Almaznyy,48.0448,40.045,73.54,48,34,9.15,RU,1627343564
Muisne,0.6,-80.0333,75.56,86,91,9.13,EC,1627343564
Baracoa,20.3467,-74.4958,80.73,84,80,1.95,CU,1627343565
Portland,45.5234,-122.6762,93.33,40,20,3.0,US,1627343510
Perambalur,11.2333,78.8833,81.99,75,100,9.91,IN,1627343565
Majene,-3.5403,118.9707,78.91,77,47,11.07,ID,1627343565
Ginda,30.6945,78.4932,67.73,96,100,1.36,IN,1627343566
Na Klang,17.3072,102.1889,75.25,88,100,5.01,TH,1627343566
Nago,26.5881,127.9761,84.36,89,95,13.44,JP,1627343566
Rocky Mountain House,52.3668,-114.9188,78.55,46,16,8.05,CA,1627343566
Torres,-29.3353,-49.7269,67.82,98,90,2.37,BR,1627343567
Gaoua,10.2992,-3.2508,76.03,74,47,7.31,BF,1627343567
Birin,26.8865,88.0718,65.08,92,100,2.46,NP,1627343567
Mar del Plata,-38.0023,-57.5575,42.01,64,40,5.01,AR,1627343568
Garoua Boulaï,5.8833,14.55,63.68,96,99,3.47,CM,1627343568
Burnie,-41.0667,145.9167,55.92,85,92,12.71,AU,1627343568
Ibirubá,-28.6275,-53.0897,61.93,95,100,4.74,BR,1627343569
Rāvar,31.2656,56.8055,82.17,22,19,9.4,IR,1627343569
Walvis Bay,-22.9575,14.5053,70.75,23,0,8.05,NA,1627343569
Shimokizukuri,40.8061,140.3861,74.25,75,94,11.56,JP,1627343569
Saint-Pierre,-21.3393,55.4781,64.04,88,75,5.75,RE,1627343570
Iguape,-24.7081,-47.5553,67.15,70,2,5.14,BR,1627343570
Hūn,29.1268,15.9477,78.04,38,0,13.27,LY,1627343570
Tyukhtet,56.5389,89.3011,63.63,93,95,9.93,RU,1627343571
Båtsfjord,70.6345,29.7185,44.4,89,60,1.92,NO,1627343571
Jimma,7.6667,36.8333,55.98,99,92,0.58,ET,1627343571
Kaeo,-35.1,173.7833,60.33,73,27,13.53,NZ,1627343572
Kang,-23.6752,22.7876,42.46,51,0,7.47,BW,1627343572
Kilindoni,-7.9139,39.6668,75.72,73,53,18.77,TZ,1627343572
Newport,51.5877,-2.9984,66.07,86,100,8.28,GB,1627343572
Bathsheba,13.2167,-59.5167,81.21,78,20,14.97,BB,1627343573
Xichang,27.8964,102.2634,68.11,85,83,1.74,CN,1627343573
São João da Barra,-21.6403,-41.0511,71.96,81,0,18.23,BR,1627343573
Vavuniya,8.7514,80.4971,78.44,80,100,9.28,LK,1627343574
Sur,22.5667,59.5289,91.54,53,82,14.56,OM,1627343575
Mongo,12.1844,18.693,75.09,83,91,0.87,TD,1627343575
Mahanoro,-19.9,48.8,62.92,86,44,9.17,MG,1627343576
College,64.8569,-147.8028,73.0,48,75,12.66,US,1627343576
Nanortalik,60.1432,-45.2371,49.15,78,37,0.89,GL,1627343577
El Retorno,2.3302,-72.6276,73.45,97,90,0.69,CO,1627343577
Rørvik,64.8621,11.2373,64.74,65,12,11.5,NO,1627343577
Kuril'sk,45.2333,147.8833,65.35,91,89,10.25,RU,1627343578
Māngrol,21.1167,70.1167,81.82,86,100,18.25,IN,1627343578
Nabire,-3.3667,135.4833,82.74,69,86,1.16,ID,1627343578
Oyama,36.3,139.8,76.59,88,100,0.98,JP,1627343579
Asău,46.4333,26.4,66.96,79,47,5.23,RO,1627343579
Anjiang,27.3194,110.1031,81.52,75,7,2.15,CN,1627343579
Lavrentiya,65.5833,-171.0,45.72,97,100,3.71,RU,1627343580
Kavaratti,10.5669,72.642,81.09,80,100,19.22,IN,1627343580
Tungor,53.3808,142.9564,70.74,87,100,4.68,RU,1627343581
Verkhnyaya Inta,65.9811,60.3094,43.68,95,100,7.63,RU,1627343581
Kitahiroshima,42.9758,141.5672,85.59,55,3,3.0,JP,1627343581
Geraldton,-28.7667,114.6,63.12,63,90,25.32,AU,1627343582
Vallenar,-28.5708,-70.7581,55.02,51,0,0.38,CL,1627343582
Praia,14.9215,-23.5087,77.54,78,75,8.05,CV,1627343501
Montpelier,44.2601,-72.5754,76.3,50,40,3.15,US,1627343380
Coahuayana Viejo,18.7333,-103.6833,85.5,76,48,4.23,MX,1627343582
Kaputa,-8.4689,29.6619,59.83,56,25,6.04,ZM,1627343583
Abu Dhabi,24.4667,54.3667,96.91,41,0,3.44,AE,1627343583
Shirokiy,49.758,129.523,72.48,85,100,5.28,RU,1627343583
Sharan,54.8167,54.0,54.86,65,50,7.34,RU,1627343584
Kruisfontein,-34.0033,24.7314,67.89,27,73,15.64,ZA,1627343516
Kamyshla,54.1169,52.1426,55.2,65,45,3.8,RU,1627343584
Ikalamavony,-21.15,46.5833,51.51,84,55,5.79,MG,1627343584
Nyaunglebin,17.95,96.7333,74.64,97,100,2.44,MM,1627343585
Vostok,46.4856,135.8833,81.95,68,78,2.19,RU,1627343585
Pevek,69.7008,170.3133,36.36,89,87,16.75,RU,1627343585
Tessalit,20.1986,1.0114,89.8,39,68,11.88,ML,1627343586
Impfondo,1.6381,18.0667,73.62,71,99,0.83,CG,1627343586
Navalmoral de la Mata,39.8916,-5.5406,73.72,39,0,0.92,ES,1627343587
Shingū,33.7333,135.9833,83.39,61,52,2.08,JP,1627343522
Rawson,-43.3002,-65.1023,43.09,81,40,17.27,AR,1627343452
Yenagoa,4.9247,6.2642,72.9,80,100,4.45,NG,1627343587
Nome,64.5011,-165.4064,50.07,87,90,9.22,US,1627343572
Wanaka,-44.7,169.15,45.1,99,71,1.01,NZ,1627343588
Brae,60.3964,-1.353,58.91,96,89,13.38,GB,1627343588
Jiuquan,39.7432,98.5174,78.94,21,99,12.66,CN,1627343553
City of San Pedro,14.35,121.0167,81.16,92,90,17.27,PH,1627343588
Teya,60.3778,92.6267,71.02,62,91,2.82,RU,1627343589
Quatre Cocos,-20.2078,57.7625,68.11,79,67,14.97,MU,1627343460
Flic en Flac,-20.2742,57.3631,68.56,79,51,10.56,MU,1627343589
Tres Arroyos,-38.3739,-60.2798,39.92,56,35,14.63,AR,1627343589
Pombas,17.1503,-25.0201,74.98,82,27,10.96,CV,1627343590
Puerto Suárez,-18.95,-57.8,80.1,38,0,3.85,BO,1627343590
Waipawa,-41.4122,175.5153,50.45,82,72,12.08,NZ,1627343590
Kalemie,-5.9475,29.1947,69.22,63,45,10.58,CD,1627343591
Korla,41.7597,86.1469,82.69,26,0,10.4,CN,1627343591
Tafo,6.7345,-1.6127,70.99,87,61,6.35,GH,1627343591
Alpena,45.0617,-83.4327,79.95,67,1,2.77,US,1627343592
Port Huron,42.9709,-82.4249,87.15,49,1,5.75,US,1627343542
Amga,60.8953,131.9608,79.45,52,19,7.72,RU,1627343457
Agadir,30.4202,-9.5982,68.45,80,0,3.69,MA,1627343593
Mayen,50.3333,7.2167,62.15,98,52,5.61,DE,1627343593
Ossora,59.2353,163.0719,64.47,90,100,8.66,RU,1627343594
Baykit,61.67,96.37,75.13,54,27,3.65,RU,1627343594
Lakatoro,-16.0999,167.4164,79.72,78,88,14.41,VU,1627343594
Karratha,-20.7377,116.8463,69.89,68,43,7.23,AU,1627343594
Panji,-7.7253,114.0995,75.56,52,21,4.0,ID,1627343595
Badvel,14.75,79.05,79.63,70,77,17.31,IN,1627343595
Saint Anthony,45.0205,-93.218,89.62,45,1,10.36,US,1627343508
Malko Tarnovo,41.9833,27.5333,64.38,65,0,0.85,BG,1627343595
Nadiād,22.7,72.8667,79.02,85,100,10.38,IN,1627343596
Roald,62.5833,6.1333,64.9,87,54,7.65,NO,1627343596
Zyryanka,65.75,150.85,56.21,45,73,16.4,RU,1627343596
Tabaan,16.3,120.5167,76.05,91,100,7.05,PH,1627343597
Pekalongan,-6.8886,109.6753,74.01,67,2,3.85,ID,1627343597
Havøysund,70.9963,24.6622,49.14,82,54,8.14,NO,1627343598
Ordynskoye,54.3656,81.8994,52.48,83,0,7.0,RU,1627343598
Yate,51.5407,-2.4184,65.35,88,100,1.01,GB,1627343598
Vikhorevka,56.1201,101.1636,71.19,53,6,3.0,RU,1627343599
Kawalu,-7.3817,108.2082,70.63,88,57,1.83,ID,1627343599
San Carlos del Zulia,9.0,-71.9135,76.55,88,100,5.01,VE,1627343600
Khovd,48.0056,91.6419,66.78,51,16,1.36,MN,1627343600
Mont-Dore,-22.2833,166.5833,73.0,99,90,12.91,NC,1627343600
Labuhan,-6.8844,112.2051,74.61,80,8,6.38,ID,1627343493
Bud,39.447,-86.1758,84.9,54,0,5.1,US,1627343601
