City,Lat,Lng,Max Temp,Humidity,Cloudiness,Wind Speed,Country,Date
Coquimbo,-29.9533,-71.3436,58.73,72,0,9.22,CL,1627247120
Hilo,19.7297,-155.09,82.8,83,90,4.61,US,1627246524
Punta Arenas,-53.15,-70.9167,37.11,71,29,11.88,CL,1627246954
Hobart,-42.8794,147.3294,45.23,70,20,1.99,AU,1627246872
Cape Town,-33.9258,18.4232,61.12,53,99,7.65,ZA,1627247122
Butaritari,3.0707,172.7902,82.45,73,80,11.48,KI,1627247123
Faanui,-16.4833,-151.75,78.06,65,0,10.96,PF,1627247123
Kuytun,54.3419,101.5036,58.73,68,92,2.73,RU,1627247123
Haines Junction,60.7522,-137.5108,57.81,58,99,4.36,CA,1627247124
Busselton,-33.65,115.3333,58.08,65,22,20.89,AU,1627247024
Guerrero Negro,27.9769,-114.0611,78.96,55,63,12.86,MX,1627247028
Khuchni,41.9499,47.9485,67.24,78,0,4.18,RU,1627247124
Roald,62.5833,6.1333,69.17,88,0,10.36,NO,1627247125
Monrovia,6.3005,-10.7969,76.37,76,97,7.47,LR,1627247078
Rikitea,-23.1203,-134.9692,70.88,67,25,5.03,PF,1627247027
Robertsport,6.7533,-11.3686,77.5,75,88,9.75,LR,1627247126
Bethel,41.3712,-73.414,81.95,78,40,6.91,US,1627247126
Barrow,71.2906,-156.7887,44.62,93,90,11.5,US,1627247127
Makkah al Mukarramah,21.4267,39.8261,89.04,32,27,6.89,SA,1627247127
Asău,46.4333,26.4,69.76,86,62,3.8,RO,1627247128
Nouadhibou,20.931,-17.0347,68.41,92,6,22.97,MR,1627246906
Bilibino,68.0546,166.4372,51.37,63,35,4.18,RU,1627247128
Cabras,39.93,8.5314,83.08,77,100,4.23,IT,1627247128
Avarua,-21.2078,-159.775,78.85,78,75,8.05,CK,1627247129
Mataura,-46.1927,168.8643,45.48,91,100,2.66,NZ,1627247103
Ushuaia,-54.8,-68.3,35.26,87,40,26.46,AR,1627247047
Baymak,52.5933,58.3225,52.79,61,0,6.96,RU,1627247130
Broome,42.2506,-75.833,86.16,61,75,3.0,US,1627247131
Brigantine,39.4101,-74.3646,87.03,78,20,9.22,US,1627247131
Kaseda-shirakame,31.4167,130.3167,79.84,83,100,14.41,JP,1627247131
Alta Floresta,-9.8756,-56.0861,91.27,27,20,2.19,BR,1627246845
Januária,-15.4833,-44.3667,72.14,28,0,3.13,BR,1627247132
Sinnamary,5.3833,-52.95,80.04,80,74,6.76,GF,1627246908
Vaini,-21.2,-175.2,75.56,83,80,4.36,TO,1627247113
Atuona,-9.8,-139.0333,77.88,72,70,24.67,PF,1627247132
Kampene,-3.6,26.6667,73.29,43,37,3.67,CD,1627247133
Laas,46.6166,10.7002,61.02,89,65,2.01,IT,1627247133
Thompson,55.7435,-97.8558,68.43,21,16,10.09,CA,1627247133
Kapaa,22.0752,-159.319,82.72,80,75,5.01,US,1627247134
Upernavik,72.7868,-56.1549,41.59,80,11,12.95,GL,1627247134
Port Alfred,-33.5906,26.891,61.14,40,56,11.03,ZA,1627247134
Tavda,58.0425,65.2726,50.43,68,70,5.93,RU,1627247135
Cartagena del Chairá,1.3349,-74.8429,74.14,93,95,2.19,CO,1627246878
Kondinskoye,59.6481,67.41,51.4,66,100,9.91,RU,1627246880
Bredasdorp,-34.5322,20.0403,51.28,47,100,5.41,ZA,1627247028
Chui,-33.6971,-53.4616,63.23,90,1,5.23,UY,1627247108
Puerto Ayora,-0.7393,-90.3518,74.55,85,38,8.01,EC,1627247031
Sisimiut,66.9395,-53.6735,46.22,76,100,7.67,GL,1627247137
Flinders,-34.5833,150.8552,55.26,68,0,4.0,AU,1627247137
Bluff,-46.6,168.3333,45.81,86,100,4.54,NZ,1627247138
Dali,25.7,100.1833,60.73,85,65,1.12,CN,1627247138
Topeka,39.0483,-95.678,91.49,72,1,5.99,US,1627247138
Nikolskoye,59.7035,30.7861,67.89,73,26,2.51,RU,1627247130
Mahébourg,-20.4081,57.7,68.25,58,40,16.53,MU,1627246865
San Patricio,28.017,-97.5169,95.72,44,0,14.34,US,1627247140
Eyl,7.9803,49.8164,77.67,71,35,22.32,SO,1627247140
Moose Factory,51.2585,-80.6094,62.89,64,84,10.02,CA,1627247140
Kpandae,8.4689,-0.0113,79.21,64,89,4.7,GH,1627247141
Longyearbyen,78.2186,15.6401,44.44,87,75,10.36,SJ,1627247109
Lincoln,40.8,-96.667,89.65,49,1,1.99,US,1627247141
Talaya,61.3833,152.75,56.75,89,100,5.5,RU,1627247142
Rawson,-43.3002,-65.1023,49.6,41,37,15.59,AR,1627247142
Saint Paul Harbor,57.79,-152.4072,53.11,87,90,5.75,US,1627247142
Caravelas,-17.7125,-39.2481,70.05,74,22,7.18,BR,1627247143
Pisco,-13.7,-76.2167,65.01,77,20,9.22,PE,1627247143
Matagami,49.7502,-77.6328,66.31,77,75,6.91,CA,1627247144
Kurumkan,54.3,110.3,60.19,68,68,2.71,RU,1627247144
Albany,42.6001,-73.9662,84.54,75,46,3.06,US,1627247017
Kudahuvadhoo,2.6708,72.8944,81.61,74,89,10.02,MV,1627247145
Muroto-misakicho,33.2833,134.15,77.58,84,93,10.49,JP,1627247145
Mount Gambier,-37.8333,140.7667,51.71,93,75,11.5,AU,1627247146
Esperance,-33.8667,121.9,52.38,87,2,17.87,AU,1627247146
Raudeberg,61.9875,5.1352,69.4,85,4,10.76,NO,1627247104
Progreso,21.2833,-89.6667,92.1,65,96,10.0,MX,1627247146
Cidreira,-30.1811,-50.2056,65.59,71,8,10.47,BR,1627247097
El Cobre,20.0489,-75.9469,83.64,79,40,8.05,CU,1627247147
Itaituba,-4.2761,-55.9836,92.82,33,56,2.26,BR,1627247148
Jardim,-21.4803,-56.1381,86.74,28,0,5.73,BR,1627247148
East London,-33.0153,27.9116,59.34,37,5,7.49,ZA,1627247091
Saint-Philippe,-21.3585,55.7679,69.35,75,40,11.59,RE,1627247087
Caucaia,-3.7361,-38.6531,80.55,74,20,9.22,BR,1627247149
Tiksi,71.6872,128.8694,49.66,80,100,7.23,RU,1627247080
Tasiilaq,65.6145,-37.6368,46.56,82,43,5.59,GL,1627247149
Bambous Virieux,-20.3428,57.7575,68.22,57,59,16.84,MU,1627247119
Dikson,73.5069,80.5464,40.06,83,100,12.95,RU,1627247111
Mar del Plata,-38.0023,-57.5575,52.09,47,100,5.01,AR,1627247150
Carnarvon,-24.8667,113.6333,62.51,74,1,4.09,AU,1627247029
Sukhumi,43.0033,41.0153,73.22,89,3,2.73,GE,1627247151
St. George's,12.0564,-61.7485,81.81,77,100,10.49,GD,1627247151
Anadyr,64.75,177.4833,54.1,93,90,5.99,RU,1627247151
Vestmanna,62.1564,-7.1664,49.12,100,90,4.61,FO,1627247152
Niterói,-22.8833,-43.1036,71.58,64,0,7.76,BR,1627246956
Muskegon,43.3,-86.1334,86.94,44,20,4.61,US,1627247152
Henties Bay,-22.116,14.2845,69.8,35,55,5.64,NA,1627247153
Talnakh,69.4865,88.3972,55.96,94,100,5.32,RU,1627247153
Nang Rong,14.6377,102.7914,78.84,88,100,13.65,TH,1627247154
Saint-Augustin,51.226,-58.6502,70.36,57,19,21.05,CA,1627247155
Dickinson,29.4608,-95.0513,100.13,60,40,1.01,US,1627247155
Vila,42.0304,-8.1588,60.75,87,13,3.0,PT,1627247155
Kondopoga,62.2057,34.2614,61.74,64,95,2.89,RU,1627247156
Tuktoyaktuk,69.4541,-133.0374,43.92,86,100,18.97,CA,1627247156
Comodoro Rivadavia,-45.8667,-67.5,47.77,40,39,13.85,AR,1627247121
Husavik,66.0449,-17.3389,57.67,62,100,10.85,IS,1627247097
Vanimo,-2.6741,141.3028,75.69,80,100,4.61,PG,1627247157
Puerto Baquerizo Moreno,-0.9,-89.6,72.01,75,7,13.87,EC,1627246972
San Rafael,-34.6177,-68.3301,56.61,28,0,6.04,AR,1627246946
Srednekolymsk,67.45,153.6833,44.56,64,100,16.24,RU,1627247113
Vallenar,-28.5708,-70.7581,66.34,32,0,5.64,CL,1627247159
Cabo San Lucas,22.8909,-109.9124,96.62,68,6,8.57,MX,1627246860
Hobyo,5.3505,48.5268,76.46,75,22,23.85,SO,1627247160
Hithadhoo,-0.6,73.0833,80.69,75,85,4.52,MV,1627247160
Mildura,-34.2,142.15,48.16,100,3,5.75,AU,1627247160
Vao,-22.6667,167.4833,71.15,70,55,15.12,NC,1627247161
Castro,-24.7911,-50.0119,58.91,65,2,4.34,BR,1627247109
Dingle,10.9995,122.6711,77.2,89,33,10.22,PH,1627247162
Kaitangata,-46.2817,169.8464,49.93,73,100,3.56,NZ,1627246925
New Norfolk,-42.7826,147.0587,44.89,70,38,3.0,AU,1627247107
Naifaru,5.4444,73.3657,82.08,78,100,16.91,MV,1627247163
Lebu,-37.6167,-73.65,50.85,90,54,15.28,CL,1627247164
Bathsheba,13.2167,-59.5167,79.41,89,75,9.22,BB,1627247164
Pangoa,-12.1167,-73.0,83.62,48,48,3.58,PE,1627247164
Berlevåg,70.8578,29.0864,44.6,87,75,21.85,NO,1627247127
Sesheke,-17.4759,24.2968,52.12,56,0,5.32,ZM,1627247165
Jamestown,42.097,-79.2353,84.09,57,1,11.5,US,1627247016
Hamilton,39.1834,-84.5333,90.77,67,1,1.99,US,1627247129
Ancud,-41.8697,-73.8203,45.93,63,25,8.75,CL,1627247166
Timizart,36.8,4.2667,78.35,56,60,2.19,DZ,1627247166
Norman Wells,65.282,-126.8329,71.62,52,85,15.46,CA,1627247136
Port Elizabeth,-33.918,25.5701,58.77,39,81,7.81,ZA,1627247051
Isangel,-19.55,169.2667,75.02,86,100,13.51,VU,1627247167
Linkou,45.3,130.2833,72.75,80,84,4.79,CN,1627247167
Jaguarão,-32.5661,-53.3758,66.87,77,18,7.7,BR,1627247168
Harper,4.375,-7.7169,75.56,77,23,6.87,LR,1627247168
Ambilobe,-13.2,49.05,63.41,85,67,3.62,MG,1627247169
Kokoda,-8.8785,147.7407,73.49,95,98,1.12,PG,1627247169
Tual,-5.6667,132.75,79.48,81,69,19.42,ID,1627247170
Tomatlán,19.9333,-105.25,91.15,60,22,9.55,MX,1627247170
Qui Nhon,13.7667,109.2333,81.77,68,93,24.43,VN,1627247170
Praia,14.9215,-23.5087,77.54,65,40,13.8,CV,1627247164
Kamaishi,39.2667,141.8833,71.8,83,69,7.49,JP,1627247171
Pokhara,28.2333,83.9833,73.11,94,100,1.79,NP,1627247171
Paamiut,61.994,-49.6678,43.88,74,70,4.36,GL,1627247160
Avera,33.194,-82.5271,93.7,50,85,4.97,US,1627247172
Hermanus,-34.4187,19.2345,60.91,53,100,10.0,ZA,1627247047
Severo-Kuril'sk,50.6789,156.125,56.05,94,85,3.51,RU,1627247173
Aksu,41.1231,80.2644,84.49,25,0,3.94,CN,1627247173
Port Hedland,-20.3167,118.5667,57.25,82,97,6.91,AU,1627246893
Lorengau,-2.0226,147.2712,78.89,82,97,8.28,PG,1627247163
Dongfeng,42.6403,125.5118,69.98,88,93,4.92,CN,1627247174
Buraidah,26.326,43.975,95.41,13,2,10.94,SA,1627247174
Ossora,59.2353,163.0719,58.6,93,100,3.33,RU,1627247175
Tahe,52.3333,124.7333,58.01,93,26,2.28,CN,1627247176
Torbay,47.6666,-52.7314,60.76,89,100,9.37,CA,1627247051
Belaya Gora,68.5333,146.4167,49.87,53,8,12.19,RU,1627247044
Otavi,-19.65,17.3333,56.73,43,0,11.21,NA,1627247176
Beloha,-25.1667,45.05,62.19,66,62,11.7,MG,1627247177
Winton,37.3894,-120.6133,105.08,16,1,11.5,US,1627247177
Alyangula,-13.8483,136.4192,69.94,73,93,11.07,AU,1627247177
Medina,24.4686,39.6142,99.03,11,0,11.5,SA,1627247064
Elko,41.0002,-115.5012,97.05,4,16,10.0,US,1627247178
Tena,-0.9833,-77.8167,81.3,61,69,3.18,EC,1627247179
Arrondissement de Mende,44.6667,3.5,49.96,97,75,2.44,FR,1627247179
Coyhaique,-45.5752,-72.0662,43.41,56,40,4.61,CL,1627247141
Sterling,39.0062,-77.4286,91.63,63,75,8.99,US,1627247179
Ceres,37.5949,-120.9577,107.51,19,1,12.66,US,1627247180
Øksfjord,70.2396,22.3479,51.87,98,100,2.19,NO,1627247180
Guayaramerín,-10.8368,-65.3614,96.19,26,8,3.22,BO,1627247181
Falmouth,50.1544,-5.0711,62.85,100,10,7.36,GB,1627247181
Erdaojiang,41.7764,126.0319,71.02,91,100,2.35,CN,1627246926
Okhotsk,59.3833,143.3,56.3,97,100,4.79,RU,1627247182
Yara,20.2753,-76.9533,85.32,69,80,6.69,CU,1627247182
Hasaki,35.7333,140.8333,75.6,78,9,16.53,JP,1627247140
Aykhal,66.0,111.5,69.82,62,20,10.51,RU,1627247183
Baghdad,33.3406,44.4009,94.91,23,0,8.05,IQ,1627247119
Onverwacht,5.5833,-55.1833,84.2,74,20,9.22,SR,1627247183
Mahon,39.8885,4.2658,75.76,78,0,9.22,ES,1627247183
Shambu,9.5667,37.1,51.57,97,100,2.13,ET,1627247184
Saint-Pierre,-21.3393,55.4781,69.44,72,0,4.61,RE,1627247072
Geraldton,-28.7667,114.6,46.81,93,0,12.66,AU,1627247134
Ulladulla,-35.35,150.4667,55.09,61,6,11.5,AU,1627247185
Victor Harbor,-35.5667,138.6167,55.99,86,100,3.0,AU,1627247185
Vardø,70.3705,31.1107,46.6,80,100,20.18,NO,1627247183
Xining,36.6167,101.7667,55.8,86,100,2.59,CN,1627247058
Shingū,33.7333,135.9833,75.9,78,0,4.45,JP,1627247186
La Ronge,55.1001,-105.2842,60.08,71,53,6.31,CA,1627247186
Chokurdakh,70.6333,147.9167,43.54,62,0,9.93,RU,1627247186
Vestmannaeyjar,63.4427,-20.2734,50.92,83,99,19.84,IS,1627247187
Port Hardy,50.6996,-127.4199,60.58,79,55,3.67,CA,1627247187
Takoradze,4.8845,-1.7554,75.07,79,21,8.46,GH,1627247188
College,64.8569,-147.8028,66.58,56,75,8.05,US,1627247189
Port Lincoln,-34.7333,135.8667,55.47,83,100,18.07,AU,1627247120
Ţahţā,26.7693,31.5021,86.27,26,0,5.44,EG,1627247189
Baruun-Urt,46.6806,113.2792,59.5,72,100,11.68,MN,1627247190
Dosso,13.049,3.1937,85.24,58,99,13.35,NE,1627247190
Pevek,69.7008,170.3133,34.93,91,100,8.39,RU,1627247190
Saldanha,-33.0117,17.9442,60.26,48,100,12.17,ZA,1627247083
Yellowknife,62.456,-114.3525,64.33,51,43,11.01,CA,1627246920
Khatanga,71.9667,102.5,50.18,82,43,5.97,RU,1627247089
Alofi,-19.0595,-169.9187,77.97,74,8,5.55,NU,1627247101
Abu Dhabi,24.4667,54.3667,98.71,44,90,3.44,AE,1627247191
Amherst,41.3978,-82.2224,88.32,60,18,3.0,US,1627246920
Lavrentiya,65.5833,-171.0,44.47,99,100,3.62,RU,1627247192
‘Āhuimanu,21.4447,-157.8378,89.31,70,75,12.66,US,1627247193
Arraial do Cabo,-22.9661,-42.0278,71.46,68,0,11.5,BR,1627247050
Nanortalik,60.1432,-45.2371,44.78,74,78,13.49,GL,1627247193
Lompoc,34.6391,-120.4579,83.21,71,90,16.11,US,1627247194
Beyneu,45.3167,55.2,87.17,19,63,13.51,KZ,1627247194
Krasnosel'kup,65.7,82.4667,53.49,91,63,6.38,RU,1627247194
Zvishavane,-20.3267,30.0665,46.26,72,54,2.89,ZW,1627247195
Shangrao,28.4532,117.9686,75.54,95,99,10.07,CN,1627247195
Quzhou,28.9594,118.8686,76.64,91,100,13.87,CN,1627247195
Byron Bay,-28.65,153.6167,45.88,59,0,5.97,AU,1627247115
Hambantota,6.1241,81.1185,79.88,78,99,17.25,LK,1627247196
Rivera,-30.9053,-55.5508,69.64,75,3,6.46,UY,1627246935
Kenora,49.8167,-94.4337,84.36,23,12,12.71,CA,1627247197
Bogo,11.0517,124.0055,79.61,79,62,8.37,PH,1627247197
Mnogovershinnyy,53.9353,139.9242,70.45,87,99,3.87,RU,1627247198
Grindavik,63.8424,-22.4338,50.47,87,75,27.63,IS,1627247170
Jutaí,-5.1833,-68.9,84.58,63,90,3.29,BR,1627247198
George Town,5.4112,100.3354,82.89,83,20,0.0,MY,1627247199
Dinghaicun,26.2847,119.7936,79.57,82,78,10.25,CN,1627247199
Ketchikan,55.3422,-131.6461,61.27,67,90,8.05,US,1627247127
Atar,20.5169,-13.0499,103.15,15,98,5.39,MR,1627246938
Amapá,1.0,-52.0,76.28,94,78,2.82,BR,1627247200
Kodino,63.7198,39.6447,52.45,90,64,2.37,RU,1627247201
Pavlodar,52.3,76.95,71.4,78,90,4.47,KZ,1627247201
Ribeira Grande,38.5167,-28.7,70.52,82,23,15.32,PT,1627247201
Qaanaaq,77.484,-69.3632,40.28,72,76,4.21,GL,1627247202
Sharjah city,25.3573,55.4033,99.25,61,56,3.8,AE,1627246983
Souillac,-20.5167,57.5167,68.36,62,4,15.28,MU,1627247202
Tiznit Province,29.5833,-9.5,79.52,35,0,3.22,MA,1627247202
Kavieng,-2.5744,150.7967,81.23,75,93,4.38,PG,1627247203
São João da Barra,-21.6403,-41.0511,71.69,71,0,15.19,BR,1627247057
Rock Sound,24.9,-76.2,82.6,75,10,8.79,BS,1627247204
Camaçari,-12.6975,-38.3242,76.77,88,20,6.71,BR,1627247204
Verkhnevilyuysk,63.4453,120.3167,64.04,74,9,5.14,RU,1627247205
Constitución,-35.3333,-72.4167,52.79,88,24,8.21,CL,1627247205
Northam,51.0333,-4.2167,65.34,92,36,4.5,GB,1627247206
Naantali,60.4674,22.0243,65.1,82,0,1.14,FI,1627247206
Clyde River,70.4692,-68.5914,35.83,100,90,6.91,CA,1627247143
Darhan,49.4867,105.9228,57.27,78,38,4.27,MN,1627247207
Lagoa,39.05,-27.9833,70.03,79,94,11.92,PT,1627247207
High Level,58.5169,-117.136,68.11,64,75,4.61,CA,1627247207
Calingcuan,15.3333,120.5833,78.21,89,100,3.65,PH,1627247208
Santa Fe,-31.6333,-60.7,62.74,68,11,4.0,AR,1627247208
Cherskiy,68.75,161.3,48.42,59,15,6.98,RU,1627247209
Salalah,17.0151,54.0924,77.61,84,78,12.1,OM,1627246958
Katsuura,35.1333,140.3,81.1,82,49,13.24,JP,1627247209
Santa Isabel Rio Negro,-0.4139,-65.0192,77.47,95,100,2.8,BR,1627247210
North Lindenhurst,40.7143,-73.3815,86.29,75,20,4.0,US,1627247210
Ewo,-0.8725,14.8206,81.23,54,71,4.52,CG,1627247210
Sioux Lookout,50.1001,-91.917,82.74,24,33,14.7,CA,1627247104
Sitrah,26.1547,50.6206,96.8,59,1,1.99,BH,1627247211
Westport,41.1415,-73.3579,83.98,83,98,1.99,US,1627246915
Kédougou,12.5579,-12.1743,77.95,85,99,4.14,SN,1627247212
Río Tercero,-32.173,-64.1141,58.8,41,0,9.46,AR,1627247212
Mogadishu,2.0371,45.3438,76.44,77,65,20.51,SO,1627247213
Acapulco de Juárez,16.8634,-99.8901,87.62,74,40,11.5,MX,1627247213
Hong Kong,22.2855,114.1577,85.32,85,15,1.01,HK,1627247214
Arlit,18.7369,7.3853,101.28,13,65,10.76,NE,1627247214
Yumen,40.2833,97.2,74.59,35,4,11.16,CN,1627247214
Gobabis,-22.45,18.9667,47.98,58,7,12.39,NA,1627247215
Salinópolis,-0.6136,-47.3561,80.33,78,92,10.16,BR,1627247144
Beringovskiy,63.05,179.3167,51.76,90,100,2.35,RU,1627247215
Kutum,14.2,24.6667,73.63,70,99,5.46,SD,1627247215
Ternate,0.8,127.4,80.44,78,100,5.86,ID,1627247216
Dakar,14.6937,-17.4441,81.48,77,100,9.08,SN,1627246924
Kupang,-10.1667,123.5833,70.72,76,6,5.08,ID,1627247216
Pingshan,22.9938,114.7131,85.89,89,11,2.51,CN,1627247217
Poum,-20.2333,164.0167,72.7,77,3,18.52,NC,1627247217
Namatanai,-3.6667,152.4333,79.07,83,95,1.7,PG,1627247206
Brae,60.3964,-1.353,57.11,86,3,4.9,GB,1627247218
Dārāb,28.7519,54.5444,90.91,19,0,6.33,IR,1627247218
São Filipe,14.8961,-24.4956,74.44,74,60,10.96,CV,1627247099
Chagoda,59.164,35.3285,55.62,74,14,4.07,RU,1627247219
Tieli,46.95,128.05,69.26,97,100,4.52,CN,1627247117
Caucayá,-0.1934,-74.7819,79.3,82,91,1.74,CO,1627247220
Mīzan Teferī,6.9833,35.5833,58.55,96,100,2.53,ET,1627247220
Usinsk,65.9939,57.5281,45.86,89,100,9.93,RU,1627247220
Umaria,23.5333,80.8333,75.18,90,100,10.04,IN,1627247221
Mineiros,-17.5694,-52.5511,76.66,26,0,5.95,BR,1627247221
Piney Green,34.716,-77.3202,87.28,66,1,11.5,US,1627247222
Half Moon Bay,37.4636,-122.4286,95.58,62,20,8.05,US,1627247222
Neijiang,29.5835,105.0622,75.49,89,3,1.72,CN,1627247222
Faya,18.3851,42.4509,64.92,77,100,5.03,SA,1627247223
Preobrazheniye,42.9019,133.9064,72.5,85,48,3.4,RU,1627247223
Fairbanks,64.8378,-147.7164,68.09,55,75,1.99,US,1627247170
Ngama,11.7833,17.1667,74.48,88,100,1.57,TD,1627247224
Kavaratti,10.5669,72.642,80.83,78,100,21.12,IN,1627247059
Kokopo,-4.352,152.2633,78.33,80,95,2.55,PG,1627247224
North Platte,41.1239,-100.7654,88.02,53,20,1.99,US,1627247225
Gisborne,-38.6533,178.0042,53.94,77,100,14.56,NZ,1627247225
Ozernovskiy,51.5,156.5167,53.83,99,100,1.97,RU,1627247225
Pascagoula,30.3658,-88.5561,91.42,84,36,7.7,US,1627247226
Sasina,44.7987,16.739,71.58,48,100,4.54,BA,1627247226
Taitung City,22.7583,121.1444,83.03,74,100,6.29,TW,1627247227
Jalu,29.0331,21.5482,82.81,42,0,17.25,LY,1627247124
Fort Saint James,54.4333,-124.25,68.59,43,58,5.46,CA,1627247156
Matara,5.9485,80.5353,77.92,86,99,10.89,LK,1627247227
Ürümqi,43.801,87.6005,77.95,28,0,4.47,CN,1627247203
Lyuban',52.7985,28.0048,65.26,73,36,5.55,BY,1627247228
Umluj,25.0213,37.2685,88.47,42,0,7.92,SA,1627247227
Arroyo de la Encomienda,41.6096,-4.7969,72.19,71,0,6.91,ES,1627247228
Callaway,30.153,-85.5699,94.91,56,40,3.0,US,1627247229
Manuk Mangkaw,4.8,119.85,83.05,78,93,10.07,PH,1627247229
Bengkulu,-3.8004,102.2655,74.03,85,1,5.39,ID,1627247076
Aklavik,68.2191,-135.0107,54.16,68,100,16.24,CA,1627247127
Heishan,41.6892,122.1128,71.04,92,86,8.66,CN,1627247230
Airai,-8.9266,125.4092,55.42,54,70,3.33,TL,1627247101
Acarí,-15.4311,-74.6158,68.67,65,32,7.65,PE,1627247231
Bernardino de Campos,-23.0131,-49.4742,67.66,30,0,3.85,BR,1627247231
Iqaluit,63.7506,-68.5145,50.7,87,100,5.99,CA,1627247067
Lüderitz,-26.6481,15.1594,66.85,22,100,4.27,NA,1627247116
Dubbo,-32.25,148.6167,37.53,93,14,5.75,AU,1627247053
Carutapera,-1.195,-46.02,78.64,80,98,6.53,BR,1627247232
Murgab,37.4966,61.9714,91.17,17,0,13.56,TM,1627247233
Ola,59.5833,151.2833,54.43,95,100,4.56,RU,1627247233
Tyukhtet,56.5389,89.3011,61.92,88,100,3.06,RU,1627247234
Olafsvik,64.8945,-23.7142,49.55,92,81,26.96,IS,1627247234
Peachland,49.7665,-119.7357,94.86,29,0,1.99,CA,1627247235
Nsawam,5.8089,-0.3503,74.32,79,11,7.34,GH,1627247235
Padang,-0.9492,100.3543,77.45,86,26,3.42,ID,1627247074
San Quintín,30.4833,-115.95,68.2,84,100,6.55,MX,1627247236
Lufilufi,-13.8745,-171.5986,85.78,72,29,13.58,WS,1627247236
Khani,41.9563,42.9566,62.17,98,68,1.5,GE,1627247236
Gazli,40.1333,63.45,95.41,14,0,15.35,UZ,1627247237
Masalli,34.7959,126.6553,75.78,85,100,9.06,KR,1627247237
Codrington,-38.2667,141.9667,52.0,89,82,15.48,AU,1627247093
Kintampo,8.0563,-1.7306,72.0,87,61,4.9,GH,1627247238
Huarmey,-10.0681,-78.1522,68.54,73,10,8.55,PE,1627247084
Marsala,37.7966,12.4352,82.54,64,0,19.42,IT,1627247239
Necochea,-38.5473,-58.7368,49.03,79,100,18.99,AR,1627247239
Kulhudhuffushi,6.6221,73.07,81.81,77,100,17.72,MV,1627247240
Hervey Bay,-25.2986,152.8535,54.03,63,3,12.06,AU,1627246969
Mkushi,-13.6202,29.3939,49.12,72,0,7.27,ZM,1627247240
Cururupu,-1.8283,-44.8683,77.52,80,79,3.67,BR,1627247240
Baculin,7.4525,126.5842,79.23,73,59,6.04,PH,1627247241
Senhor do Bonfim,-10.4614,-40.1894,67.55,57,8,4.29,BR,1627247241
Bom Jesus,-9.0744,-44.3586,78.33,47,5,7.29,BR,1627247242
Asunción Nochixtlán,17.4667,-97.2333,71.76,46,61,9.86,MX,1627247242
Makakilo City,21.3469,-158.0858,88.12,57,75,10.36,US,1627247243
Mizdah,31.4451,12.9801,80.71,26,0,8.86,LY,1627247243
Birao,10.2849,22.7882,71.29,95,100,4.41,CF,1627247244
Gushikawa,26.3544,127.8686,80.19,89,90,5.75,JP,1627247142
Garoowe,8.4054,48.4845,78.87,47,57,21.68,SO,1627247244
Perelyub,51.8667,50.3667,59.47,40,0,8.08,RU,1627247244
Ginda,30.6945,78.4932,69.37,99,100,1.9,IN,1627247101
Townsville,-19.25,146.8,54.48,76,20,0.0,AU,1627247245
Mount Isa,-20.7333,139.5,51.57,40,12,8.05,AU,1627247245
Qeshm,26.9581,56.2719,91.27,75,32,5.61,IR,1627247246
Thomasville,35.8826,-80.082,90.99,70,98,3.0,US,1627247198
Krasnoarmeysk,51.0239,45.6969,68.29,62,3,2.84,RU,1627247247
Ponta do Sol,32.6667,-17.1,77.0,83,0,4.76,PT,1627247071
Alekseyevsk,57.8406,108.3492,60.67,71,86,3.98,RU,1627247248
Fukuechō,32.6881,128.8419,79.65,81,100,16.17,JP,1627247248
Tocopilla,-22.092,-70.1979,63.5,72,100,11.3,CL,1627247248
Ahmadpur,18.7,76.9333,74.01,85,27,14.58,IN,1627247249
Kiunga,-6.1219,141.2906,71.69,99,100,0.85,PG,1627247249
Shihezi,44.3,86.0333,79.86,25,3,4.5,CN,1627247249
Klaksvík,62.2266,-6.589,50.92,95,100,8.08,FO,1627247250
Boende,-0.2167,20.8667,79.21,54,63,3.02,CD,1627247250
Vaxjo,56.8777,14.8091,66.79,77,90,4.61,SE,1627247040
Letlhakane,-21.4167,25.5833,47.57,63,0,12.17,BW,1627247251
Tura,25.5198,90.2201,75.4,95,100,4.83,IN,1627247127
Lieksa,63.3167,30.0167,60.4,78,70,3.91,FI,1627247252
Gävle,60.6745,17.1417,61.95,62,1,6.35,SE,1627247252
Honiara,-9.4333,159.95,79.2,85,63,6.2,SB,1627247253
Ndélé,8.4109,20.6473,71.78,96,100,3.62,CF,1627247253
Rodolfo Sánchez Taboada,31.7167,-116.5667,69.1,85,100,1.99,MX,1627247253
Dawlish,50.5812,-3.4664,68.16,57,84,4.47,GB,1627247254
Ribeira Brava,32.65,-17.0667,77.0,85,0,3.89,PT,1627247254
Forest Grove,45.5198,-123.1107,92.98,39,1,5.99,US,1627247254
Caarapó,-22.6342,-54.8222,80.56,32,0,5.21,BR,1627247255
Provideniya,64.3833,-173.3,46.51,100,90,4.47,RU,1627247255
Buala,-8.145,159.5921,80.71,82,24,7.0,SB,1627247256
‘Ewa Beach,21.3156,-158.0072,89.55,57,75,10.36,US,1627247256
Berbera,10.4396,45.0143,89.33,37,96,27.11,SO,1627247257
Los Andes,-32.8337,-70.5983,56.01,46,14,5.97,CL,1627247257
Marmora,44.4583,7.094,63.07,78,82,7.0,IT,1627247258
Sitka,57.0531,-135.33,57.09,82,75,4.61,US,1627247074
San Cristobal,7.7669,-72.225,77.18,58,100,4.38,VE,1627247113
Narasimharājapura,13.6167,75.5167,69.62,91,74,6.4,IN,1627247258
Naze,28.3667,129.4833,77.59,89,100,17.0,JP,1627247259
Tabas,33.5959,56.9244,90.68,11,0,9.06,IR,1627247259
Kununurra,-15.7667,128.7333,58.98,82,78,3.44,AU,1627247052
Boca do Acre,-8.7522,-67.3978,97.36,28,34,1.39,BR,1627247260
General Roca,-39.0333,-67.5833,54.19,48,83,14.65,AR,1627247260
Marzuq,14.4,46.4667,73.38,79,74,7.85,YE,1627247261
Mīnāb,27.1467,57.0801,90.9,52,30,2.19,IR,1627247199
Ponta Delgada,37.7333,-25.6667,70.52,88,75,8.05,PT,1627247261
Virginia Beach,36.8529,-75.978,90.18,61,98,4.0,US,1627246831
High Rock,26.6208,-78.2833,83.75,72,99,9.89,BS,1627246995
Adrar,20.5022,-10.0711,99.16,7,13,7.81,MR,1627247262
San Antonio,29.4241,-98.4936,99.79,46,1,10.36,US,1627247040
Nioro,13.35,-15.75,79.2,70,100,7.72,GM,1627247263
Puerto Madryn,-42.7692,-65.0385,50.4,40,94,19.66,AR,1627247263
Fort Smith,35.3859,-94.3986,97.38,52,1,1.99,US,1627247263
Vila Franca do Campo,37.7167,-25.4333,70.21,87,40,6.69,PT,1627247107
Ban Nahin,18.2418,104.2122,75.29,100,100,3.18,LA,1627247264
Kruisfontein,-34.0033,24.7314,54.82,35,57,7.18,ZA,1627247106
Ixtapa,20.7,-105.2,90.23,66,40,13.8,MX,1627247265
Marsh Harbour,26.5412,-77.0636,83.46,72,96,10.71,BS,1627247266
Arrecife,28.963,-13.5477,75.27,78,20,28.77,ES,1627247266
Mareeba,-17.0,145.4333,59.72,87,94,2.19,AU,1627247234
Caibarién,22.5206,-79.4669,87.12,71,35,11.45,CU,1627247266
Fare,-16.7,-151.0167,77.81,65,2,10.8,PF,1627247267
Palamós,41.8484,3.1291,78.39,42,69,4.72,ES,1627247267
Sanaa,15.3547,44.2067,63.39,73,96,3.67,YE,1627247268
Havelock,34.8791,-76.9013,87.75,72,40,4.0,US,1627247268
Inhambane,-23.865,35.3833,65.35,66,99,11.95,MZ,1627247269
Leningradskiy,69.3833,178.4167,38.5,88,99,4.43,RU,1627247269
Verkhotur'ye,58.8627,60.8054,49.44,70,43,6.33,RU,1627247270
Tuatapere,-46.1333,167.6833,45.82,96,100,4.88,NZ,1627247129
Egvekinot,66.3167,-179.1667,44.73,89,100,1.39,RU,1627247081
Dunda,-8.1167,34.25,56.1,53,1,5.86,TZ,1627247270
Acajutla,13.5928,-89.8275,85.78,65,100,9.73,SV,1627247271
Nishihara,26.1842,127.7558,80.26,94,75,11.5,JP,1627247271
Buguruslan,53.6554,52.442,53.1,53,0,4.94,RU,1627247271
Kahului,20.8947,-156.47,87.82,79,40,23.02,US,1627247214
Praia da Vitória,38.7333,-27.0667,72.75,83,76,11.03,PT,1627247138
Jinchang,38.4953,102.1739,72.61,41,98,11.27,CN,1627247272
Tromsø,69.6496,18.957,54.25,87,90,2.3,NO,1627247273
Sechura,-5.5569,-80.8222,75.45,63,26,13.73,PE,1627247273
Opuwo,-18.0607,13.84,62.6,34,5,7.47,NA,1627247274
Sidi Ali,36.0998,0.4206,74.7,54,0,4.23,DZ,1627247087
Karratha,-20.7377,116.8463,68.38,49,69,5.39,AU,1627247274
Labytnangi,66.6572,66.4183,47.89,82,98,8.77,RU,1627247274
Manokwari,-0.8667,134.0833,78.31,74,98,3.15,ID,1627247275
Qaqortoq,60.7167,-46.0333,57.7,69,45,4.92,GL,1627247043
Grand Gaube,-20.0064,57.6608,68.38,65,20,5.01,MU,1627247275
Morris,40.8334,-74.5329,85.23,73,75,10.36,US,1627247276
Port Macquarie,-31.4333,152.9167,47.37,66,0,6.24,AU,1627247276
Grand-Santi,4.25,-54.3833,78.24,91,83,3.89,GF,1627247277
Ostrovnoy,68.0531,39.5131,45.54,90,100,16.53,RU,1627247277
Kirakira,-10.4544,161.9205,80.6,78,86,8.61,SB,1627247278
Skjervøy,70.0311,20.9714,51.33,97,100,4.32,NO,1627247278
Panguna,-6.3164,155.4848,70.56,93,39,0.67,PG,1627247278
Te Anau,-45.4167,167.7167,44.78,96,100,1.1,NZ,1627247087
Noumea,-22.2763,166.4572,70.0,99,61,6.69,NC,1627247279
Suntar,62.1444,117.6319,63.72,74,28,3.4,RU,1627247279
Monok,48.2167,21.15,72.41,70,98,3.27,HU,1627247280
Penzance,50.1186,-5.5371,61.81,87,11,9.37,GB,1627247280
Ishigaki,24.3448,124.1572,84.02,89,97,18.66,JP,1627247281
Tiarei,-17.5333,-149.3333,82.42,68,1,8.81,PF,1627247281
Yar-Sale,66.8333,70.8333,44.2,86,42,10.58,RU,1627247282
Bahawalnagar,30.5508,73.3908,96.98,42,45,9.33,PK,1627247282
Bayan,46.0833,127.4,71.51,88,100,5.41,CN,1627247282
Río Gallegos,-51.6226,-69.2181,37.4,68,45,17.54,AR,1627247283
Dawlatabad,36.4141,64.9053,88.14,14,0,5.26,AF,1627247283
Sal Rei,16.1833,-22.9167,75.76,75,18,11.92,CV,1627247283
Warragul,-38.1667,145.9333,53.65,80,82,5.01,AU,1627247284
Beroroha,-21.6667,45.1667,60.64,65,40,6.51,MG,1627247284
Olinda,-8.0089,-34.8553,71.33,88,75,6.91,BR,1627247285
Avon Park,27.5959,-81.5062,93.29,62,73,4.41,US,1627247024
Katobu,-4.9408,122.5276,70.83,93,66,3.22,ID,1627247285
Kidal,18.4411,1.4078,91.4,34,96,3.06,ML,1627247286
George Town,5.4112,100.3354,82.89,83,20,0.0,MY,1627247199
Sibolga,1.7427,98.7792,76.51,82,49,2.86,ID,1627247273
Pingzhuang,42.0372,119.2889,71.29,78,100,12.33,CN,1627247286
Columbus,39.9612,-82.9988,90.88,59,40,8.05,US,1627247147
Saint George,37.1041,-113.5841,97.43,32,1,4.0,US,1627247138
Prince Rupert,54.3161,-130.3201,60.35,81,68,1.7,CA,1627247007
Marawi,7.9986,124.2928,69.66,90,96,5.19,PH,1627247287
Kichmengskiy Gorodok,59.9816,45.7854,54.7,69,82,4.74,RU,1627247288
Omaruru,-21.4333,15.9333,59.04,37,5,11.5,NA,1627247288
Mugur-Aksy,50.35,90.5,51.94,83,73,4.68,RU,1627247288
Damietta,31.4165,31.8133,78.69,74,0,9.26,EG,1627247289
Coahuayana Viejo,18.7333,-103.6833,90.88,64,68,6.42,MX,1627247289
Rincon,32.296,-81.2354,91.9,59,40,10.36,US,1627247210
Hutchinson,38.0608,-97.9298,87.19,69,1,3.44,US,1627247202
Lavumisa,-27.31,31.892,52.99,91,32,1.16,SZ,1627247290
Thung Song,8.1645,99.6804,80.44,91,100,2.8,TH,1627247290
Kourou,5.1552,-52.6478,78.85,80,70,6.06,GF,1627247140
Saint-François,46.4154,3.9054,65.64,77,0,3.44,FR,1627247143
Balyqshy,47.0667,51.8667,78.8,31,0,17.9,KZ,1627247291
Jiblah,13.9216,44.1467,61.86,87,87,6.82,YE,1627247291
Quatre Cocos,-20.2078,57.7625,68.09,57,64,16.87,MU,1627247292
Neyshabur,36.2133,58.7958,82.35,16,0,8.08,IR,1627247292
Kotel,42.8833,26.45,62.15,64,0,0.63,BG,1627247292
Shimoda,34.6667,138.95,75.11,84,16,8.28,JP,1627247293
Sørland,67.667,12.6934,54.5,84,96,6.53,NO,1627247293
Iwanai,42.9744,140.5089,71.28,90,34,4.54,JP,1627247294
Stornoway,58.2093,-6.3865,56.93,94,90,9.22,GB,1627247294
Urbano Santos,-3.2078,-43.4036,81.63,52,51,1.72,BR,1627247295
Hita,33.3167,130.9333,77.29,94,97,3.87,JP,1627247295
Buluang,13.3068,123.3425,80.73,87,99,11.99,PH,1627247296
Tangjiazhuang,39.7333,118.45,72.39,95,89,4.88,CN,1627247296
Pacific Grove,36.6177,-121.9166,90.28,78,1,1.99,US,1627247296
Rodrigues Alves,-7.738,-72.6509,88.65,44,65,2.13,BR,1627247297
Tupelo,34.2576,-88.7034,93.97,59,1,8.01,US,1627247203
Shakhovskaya,56.0283,35.5097,59.36,61,39,5.99,RU,1627247297
Batagay,67.6333,134.6333,61.05,60,36,2.48,RU,1627247298
Port Blair,11.6667,92.75,82.09,85,100,17.29,IN,1627247298
Jurm,36.8648,70.8342,71.67,33,0,1.68,AF,1627247299
Churapcha,62.0025,132.4325,61.81,64,2,5.1,RU,1627247299
Kungurtug,50.5994,97.5228,52.05,95,87,2.01,RU,1627247300
Manacor,39.5696,3.2096,77.88,81,35,6.17,ES,1627247300
Maniitsoq,65.4167,-52.9,46.08,72,100,10.38,GL,1627247300
Nichinan,31.6,131.3667,79.75,90,100,9.13,JP,1627247301
Katangli,51.7102,143.2326,70.36,88,100,6.42,RU,1627247301
Ayagoz,47.9714,80.4392,74.82,38,94,5.82,KZ,1627247301
Ryki,51.6257,21.9327,70.27,69,100,6.89,PL,1627247302
Pedra Azul,-16.0053,-41.2972,64.33,51,0,4.25,BR,1627247302
Maryborough,-25.5333,152.7,46.31,69,2,4.83,AU,1627247302
Cape Canaveral,28.4058,-80.6048,92.25,76,75,13.8,US,1627247303
Tirschenreuth,49.8825,12.3331,67.33,89,62,1.1,DE,1627247303
Sawtell,-30.3833,153.1,42.19,87,0,2.3,AU,1627247304
Weligama,5.9667,80.4167,77.94,86,99,11.41,LK,1627247304
Lata,40.1629,-8.3327,71.04,99,58,3.31,PT,1627247068
Polovinnoye,54.7914,65.9864,51.96,76,0,7.47,RU,1627247305
Umm Hājar,13.2954,19.6966,77.7,74,100,6.53,TD,1627247305
Akçakoca,41.0866,31.1162,72.0,85,31,6.85,TR,1627247305
Harlingen,26.1906,-97.6961,96.35,54,1,13.8,US,1627247241
Waingapu,-9.6567,120.2641,71.13,76,5,3.85,ID,1627247306
Abancay,-13.6339,-72.8814,71.92,31,38,9.33,PE,1627247307
Baykit,61.67,96.37,64.6,77,52,2.42,RU,1627247307
Dauriya,49.9333,116.8667,53.17,94,5,5.53,RU,1627247195
Sakakah,29.9697,40.2064,95.43,20,2,5.75,SA,1627247308
Portland,45.5234,-122.6762,90.7,44,1,3.0,US,1627247048
Nacala,-14.5428,40.6728,66.96,66,5,11.27,MZ,1627247308
Tautira,-17.7333,-149.15,82.42,68,0,10.22,PF,1627247175
Salacgrīva,57.7536,24.3581,62.91,72,4,7.16,LV,1627247309
Camacha,33.0833,-16.3333,73.53,88,75,12.66,PT,1627247309
Ilulissat,69.2167,-51.1,53.62,37,100,10.36,GL,1627247310
Cambridge,43.3601,-80.3127,86.76,44,0,3.0,CA,1627247081
San Jerónimo,-11.9472,-75.2829,62.65,29,15,7.63,PE,1627247310
Comandău,45.7667,26.2667,58.32,77,2,5.5,RO,1627247311
Pāsighāt,28.0667,95.3333,78.22,97,100,1.92,IN,1627247206
Ciudad Real,39.0,-4.0,79.14,48,50,1.99,ES,1627247312
Vila Velha,-20.3297,-40.2925,71.55,68,40,9.22,BR,1627247274
Yabrūd,33.9674,36.6574,67.66,45,0,1.3,SY,1627247235
Khuzhir,53.1939,107.3397,55.65,74,67,4.41,RU,1627247312
Mahibadhoo,3.7833,72.9667,81.82,78,100,15.23,MV,1627247126
Kumul,42.8,93.45,84.42,20,5,9.04,CN,1627247313
Pitimbu,-7.4706,-34.8086,73.99,84,7,12.88,BR,1627247313
Province of Mantua,45.1667,10.7833,80.91,76,80,5.01,IT,1627247314
Trincomalee,8.5711,81.2335,81.28,77,100,25.17,LK,1627247314
Palmer,42.1584,-72.3287,78.48,78,90,4.0,US,1627247181
Amalāpuram,16.5833,82.0167,80.65,82,54,4.54,IN,1627247314
Chërnaya Kholunitsa,58.8511,51.7154,47.43,82,34,4.79,RU,1627247315
Manchester,53.4809,-2.2374,67.84,74,87,10.36,GB,1627246732
Gizo Government Station,-8.103,156.8419,81.01,78,24,7.31,SB,1627247315
Evensk,61.95,159.2333,49.1,99,100,7.56,RU,1627247316
São Raimundo das Mangabeiras,-7.0219,-45.4811,86.41,30,62,5.93,BR,1627247316
Singaparna,-7.3515,108.111,65.73,96,62,1.21,ID,1627247317
Fortuna,40.5982,-124.1573,99.48,81,1,16.11,US,1627247272
Taywarah,33.35,64.4167,62.02,26,4,6.2,AF,1627247317
Tarnos,43.5417,-1.4628,68.31,77,75,5.75,FR,1627247318
Rabaul,-4.1967,152.1721,79.88,78,97,2.68,PG,1627247318
Meadow Lake,34.8014,-106.5436,86.83,50,91,2.04,US,1627247319
Fujin,47.26,132.0322,71.89,79,100,6.33,CN,1627247319
Tubualá,9.5167,-79.0333,78.33,76,100,9.82,PA,1627247319
Pokosnoye,55.5258,101.0536,59.07,70,100,3.8,RU,1627247320
Saint Anthony,45.0205,-93.218,94.33,24,1,1.99,US,1627247243
San Isidro,-12.1167,-77.05,65.79,82,90,4.0,PE,1627247321
Burnie,-41.0667,145.9167,47.91,88,31,7.36,AU,1627247321
Zhangaözen,43.3,52.8,84.25,28,0,18.45,KZ,1627247321
Moratuwa,6.773,79.8816,78.82,88,100,9.93,LK,1627247322
Dunedin,-45.8742,170.5036,50.81,76,100,14.0,NZ,1627247322
Ayan,56.45,138.1667,61.45,92,93,3.8,RU,1627247322
Gaza,31.5,34.4667,82.9,76,1,7.11,PS,1627247323
Harrisonville,38.6533,-94.3488,91.08,60,40,6.91,US,1627247323
Wad Rāwah,15.1603,33.1397,81.72,64,85,13.11,SD,1627247324
Carroll,39.5501,-77.0164,91.47,65,90,5.01,US,1627247324
Riverton,40.5219,-111.9391,99.28,20,1,4.0,US,1627247325
Walvis Bay,-22.9575,14.5053,71.83,27,37,6.17,NA,1627247326
Mitsamiouli,-11.3847,43.2844,76.1,64,97,12.03,KM,1627247326
Atasū,48.6814,71.6433,70.83,65,6,16.24,KZ,1627247214
Jaqué,7.5175,-78.1703,76.5,89,100,4.83,PA,1627247326
San Miguel de Tucumán,-26.8241,-65.2226,72.73,27,68,4.34,AR,1627247327
Bariloche,-41.1456,-71.3082,44.35,45,20,18.41,AR,1627247067
Cheremkhovo,53.1561,103.0675,56.07,87,21,5.32,RU,1627247327
The Valley,18.217,-63.0578,82.81,86,40,18.68,AI,1627247328
Pribinić,44.6106,17.6906,70.21,44,51,4.23,BA,1627247328
Ghanzi,-21.5667,21.7833,48.78,55,0,9.01,BW,1627247329
Saint-Ambroise,48.5501,-71.3324,73.89,87,49,0.85,CA,1627247329
Banda Aceh,5.5577,95.3222,79.66,83,96,7.45,ID,1627247330
Lithgow,-33.4833,150.15,42.87,90,76,15.08,AU,1627247330
Chapais,49.7834,-74.8492,62.38,54,94,9.86,CA,1627247330
Alta,69.9689,23.2717,51.06,89,90,3.0,NO,1627247331
